[
  {
    "name": "Ras Mohammed",
    "lat": 27.7333,
    "lng": 34.2833,
    "country": "Egypt",
    "region": "Sinai Peninsula",
    "description": "Famous reef with abundant marine life",
    "siteTypes": [
      "reef",
      "wall"
    ],
    "difficulty": 2,
    "depthMin": 5,
    "depthMax": 30,
    "marineLife": [],
    "averageRating": 0,
    "reviewCount": 0,
    "latitude": 27.7333,
    "longitude": 34.2833,
    "issues": null,
    "fixed": false,
    "valid": true
  },
  {
    "name": "SS Thistlegorm",
    "lat": 27.8167,
    "lng": 33.9167,
    "country": "Egypt",
    "region": "Red Sea",
    "description": "World War II wreck, one of the best wreck dives",
    "siteTypes": [
      "wreck"
    ],
    "difficulty": 3,
    "depthMin": 15,
    "depthMax": 30,
    "marineLife": [],
    "averageRating": 0,
    "reviewCount": 0,
    "latitude": 27.8167,
    "longitude": 33.9167,
    "issues": null,
    "fixed": false,
    "valid": true
  },
  {
    "name": "Blue Hole Dahab",
    "lat": 28.5667,
    "lng": 34.5167,
    "country": "Egypt",
    "region": "Dahab",
    "description": "Famous sinkhole dive site",
    "siteTypes": [
      "wall",
      "cave"
    ],
    "difficulty": 4,
    "depthMin": null,
    "depthMax": 130,
    "marineLife": [],
    "averageRating": 0,
    "reviewCount": 0,
    "latitude": 28.5667,
    "longitude": 34.5167,
    "issues": null,
    "fixed": false,
    "valid": true
  },
  {
    "name": "Brothers Islands",
    "lat": 26.2833,
    "lng": 34.8333,
    "country": "Egypt",
    "region": "Red Sea",
    "description": "Remote islands with sharks and pelagics",
    "siteTypes": [
      "reef",
      "wall"
    ],
    "difficulty": 3,
    "depthMin": 10,
    "depthMax": 40,
    "marineLife": [],
    "averageRating": 0,
    "reviewCount": 0,
    "latitude": 26.2833,
    "longitude": 34.8333,
    "issues": null,
    "fixed": false,
    "valid": true
  },
  {
    "name": "Elphinstone Reef",
    "lat": 25.2167,
    "lng": 34.8833,
    "country": "Egypt",
    "region": "Marsa Alam",
    "description": "Famous reef with sharks",
    "siteTypes": [
      "reef",
      "wall"
    ],
    "difficulty": 3,
    "depthMin": 5,
    "depthMax": 40,
    "marineLife": [],
    "averageRating": 0,
    "reviewCount": 0,
    "latitude": 25.2167,
    "longitude": 34.8833,
    "issues": null,
    "fixed": false,
    "valid": true
  },
  {
    "name": "Manta Point",
    "lat": 3.8167,
    "lng": 73.4167,
    "country": "Maldives",
    "region": "Ari Atoll",
    "description": "Cleaning station for manta rays",
    "siteTypes": [
      "reef"
    ],
    "difficulty": 2,
    "depthMin": 5,
    "depthMax": 20,
    "marineLife": [],
    "averageRating": 0,
    "reviewCount": 0,
    "latitude": 3.8167,
    "longitude": 73.4167,
    "issues": null,
    "fixed": false,
    "valid": true
  },
  {
    "name": "Fish Head",
    "lat": 3.8667,
    "lng": 73.3667,
    "country": "Maldives",
    "region": "Ari Atoll",
    "description": "Shark aggregation site",
    "siteTypes": [
      "reef"
    ],
    "difficulty": 3,
    "depthMin": 10,
    "depthMax": 30,
    "marineLife": [],
    "averageRating": 0,
    "reviewCount": 0,
    "latitude": 3.8667,
    "longitude": 73.3667,
    "issues": null,
    "fixed": false,
    "valid": true
  },
  {
    "name": "Kandu Thila",
    "lat": 4.2167,
    "lng": 73.2833,
    "country": "Maldives",
    "region": "North Male Atoll",
    "description": "Channel dive with strong currents",
    "siteTypes": [
      "reef",
      "drift"
    ],
    "difficulty": 3,
    "depthMin": 5,
    "depthMax": 30,
    "marineLife": [],
    "averageRating": 0,
    "reviewCount": 0,
    "latitude": 4.2167,
    "longitude": 73.2833,
    "issues": null,
    "fixed": false,
    "valid": true
  },
  {
    "name": "Maaya Thila",
    "lat": 4.1167,
    "lng": 73.3333,
    "country": "Maldives",
    "region": "Ari Atoll",
    "description": "Night dive with nurse sharks",
    "siteTypes": [
      "reef"
    ],
    "difficulty": 2,
    "depthMin": 5,
    "depthMax": 25,
    "marineLife": [],
    "averageRating": 0,
    "reviewCount": 0,
    "latitude": 4.1167,
    "longitude": 73.3333,
    "issues": null,
    "fixed": false,
    "valid": true
  },
  {
    "name": "Banana Reef",
    "lat": 4.1833,
    "lng": 73.4167,
    "country": "Maldives",
    "region": "North Male Atoll",
    "description": "Classic reef dive with colorful corals",
    "siteTypes": [
      "reef"
    ],
    "difficulty": 1,
    "depthMin": 5,
    "depthMax": 20,
    "marineLife": [],
    "averageRating": 0,
    "reviewCount": 0,
    "latitude": 4.1833,
    "longitude": 73.4167,
    "issues": null,
    "fixed": false,
    "valid": true
  },
  {
    "name": "Manta Point Nusa Penida",
    "lat": -8.7167,
    "lng": 115.5167,
    "country": "Indonesia",
    "region": "Bali",
    "description": "Manta ray cleaning station",
    "siteTypes": [
      "reef"
    ],
    "difficulty": 2,
    "depthMin": 5,
    "depthMax": 25,
    "marineLife": [],
    "averageRating": 0,
    "reviewCount": 0,
    "latitude": -8.7167,
    "longitude": 115.5167,
    "issues": null,
    "fixed": false,
    "valid": true
  },
  {
    "name": "Crystal Bay",
    "lat": -8.6833,
    "lng": 115.4667,
    "country": "Indonesia",
    "region": "Bali",
    "description": "Beautiful bay with mola mola",
    "siteTypes": [
      "reef"
    ],
    "difficulty": 3,
    "depthMin": 5,
    "depthMax": 30,
    "marineLife": [],
    "averageRating": 0,
    "reviewCount": 0,
    "latitude": -8.6833,
    "longitude": 115.4667,
    "issues": null,
    "fixed": false,
    "valid": true
  },
  {
    "name": "USAT Liberty",
    "lat": -8.2833,
    "lng": 115.5833,
    "country": "Indonesia",
    "region": "Bali",
    "description": "WWII wreck covered in corals",
    "siteTypes": [
      "wreck"
    ],
    "difficulty": 2,
    "depthMin": 3,
    "depthMax": 30,
    "marineLife": [],
    "averageRating": 0,
    "reviewCount": 0,
    "latitude": -8.2833,
    "longitude": 115.5833,
    "issues": null,
    "fixed": false,
    "valid": true
  },
  {
    "name": "Komodo National Park",
    "lat": -8.55,
    "lng": 119.4667,
    "country": "Indonesia",
    "region": "Komodo",
    "description": "Dragon island with amazing diving",
    "siteTypes": [
      "reef",
      "wall"
    ],
    "difficulty": 3,
    "depthMin": 5,
    "depthMax": 40,
    "marineLife": [],
    "averageRating": 0,
    "reviewCount": 0,
    "latitude": -8.55,
    "longitude": 119.4667,
    "issues": null,
    "fixed": false,
    "valid": true
  },
  {
    "name": "Raja Ampat",
    "lat": -0.8667,
    "lng": 130.6667,
    "country": "Indonesia",
    "region": "West Papua",
    "description": "Biodiversity hotspot",
    "siteTypes": [
      "reef",
      "wall"
    ],
    "difficulty": 2,
    "depthMin": 5,
    "depthMax": 30,
    "marineLife": [],
    "averageRating": 0,
    "reviewCount": 0,
    "latitude": -0.8667,
    "longitude": 130.6667,
    "issues": null,
    "fixed": false,
    "valid": true
  },
  {
    "name": "Tubbataha Reef",
    "lat": 8.95,
    "lng": 119.9167,
    "country": "Philippines",
    "region": "Palawan",
    "description": "UNESCO World Heritage Site",
    "siteTypes": [
      "reef",
      "wall"
    ],
    "difficulty": 3,
    "depthMin": 5,
    "depthMax": 40,
    "marineLife": [],
    "averageRating": 0,
    "reviewCount": 0,
    "latitude": 8.95,
    "longitude": 119.9167,
    "issues": null,
    "fixed": false,
    "valid": true
  },
  {
    "name": "Apo Reef",
    "lat": 12.6667,
    "lng": 120.7167,
    "country": "Philippines",
    "region": "Mindoro",
    "description": "Second largest reef in the Philippines",
    "siteTypes": [
      "reef"
    ],
    "difficulty": 2,
    "depthMin": 5,
    "depthMax": 30,
    "marineLife": [],
    "averageRating": 0,
    "reviewCount": 0,
    "latitude": 12.6667,
    "longitude": 120.7167,
    "issues": null,
    "fixed": false,
    "valid": true
  },
  {
    "name": "Malapascua",
    "lat": 11.3333,
    "lng": 124.0667,
    "country": "Philippines",
    "region": "Cebu",
    "description": "Thresher shark dive site",
    "siteTypes": [
      "reef"
    ],
    "difficulty": 3,
    "depthMin": 15,
    "depthMax": 30,
    "marineLife": [],
    "averageRating": 0,
    "reviewCount": 0,
    "latitude": 11.3333,
    "longitude": 124.0667,
    "issues": null,
    "fixed": false,
    "valid": true
  },
  {
    "name": "Anilao",
    "lat": 13.75,
    "lng": 121.0167,
    "country": "Philippines",
    "region": "Batangas",
    "description": "Macro photography paradise",
    "siteTypes": [
      "reef"
    ],
    "difficulty": 2,
    "depthMin": 5,
    "depthMax": 25,
    "marineLife": [],
    "averageRating": 0,
    "reviewCount": 0,
    "latitude": 13.75,
    "longitude": 121.0167,
    "issues": null,
    "fixed": false,
    "valid": true
  },
  {
    "name": "Coron Bay",
    "lat": 12,
    "lng": 120.2,
    "country": "Philippines",
    "region": "Palawan",
    "description": "WWII Japanese wrecks",
    "siteTypes": [
      "wreck"
    ],
    "difficulty": 2,
    "depthMin": 5,
    "depthMax": 30,
    "marineLife": [],
    "averageRating": 0,
    "reviewCount": 0,
    "latitude": 12,
    "longitude": 120.2,
    "issues": null,
    "fixed": false,
    "valid": true
  },
  {
    "name": "Richelieu Rock",
    "lat": 9.3667,
    "lng": 98.0167,
    "country": "Thailand",
    "region": "Similan Islands",
    "description": "Whale shark and manta ray site",
    "siteTypes": [
      "reef"
    ],
    "difficulty": 3,
    "depthMin": 5,
    "depthMax": 35,
    "marineLife": [],
    "averageRating": 0,
    "reviewCount": 0,
    "latitude": 9.3667,
    "longitude": 98.0167,
    "issues": null,
    "fixed": false,
    "valid": true
  },
  {
    "name": "Hin Daeng",
    "lat": 7.4167,
    "lng": 97.6667,
    "country": "Thailand",
    "region": "Koh Lanta",
    "description": "Red rock with pelagics",
    "siteTypes": [
      "reef"
    ],
    "difficulty": 3,
    "depthMin": 10,
    "depthMax": 40,
    "marineLife": [],
    "averageRating": 0,
    "reviewCount": 0,
    "latitude": 7.4167,
    "longitude": 97.6667,
    "issues": null,
    "fixed": false,
    "valid": true
  },
  {
    "name": "Koh Tao",
    "lat": 10.1,
    "lng": 99.8333,
    "country": "Thailand",
    "region": "Gulf of Thailand",
    "description": "Beginner friendly dive site",
    "siteTypes": [
      "reef"
    ],
    "difficulty": 1,
    "depthMin": 5,
    "depthMax": 20,
    "marineLife": [],
    "averageRating": 0,
    "reviewCount": 0,
    "latitude": 10.1,
    "longitude": 99.8333,
    "issues": null,
    "fixed": false,
    "valid": true
  },
  {
    "name": "Chumphon Pinnacle",
    "lat": 10.4167,
    "lng": 99.9167,
    "country": "Thailand",
    "region": "Koh Tao",
    "description": "Shark and pelagic site",
    "siteTypes": [
      "reef"
    ],
    "difficulty": 3,
    "depthMin": 10,
    "depthMax": 35,
    "marineLife": [],
    "averageRating": 0,
    "reviewCount": 0,
    "latitude": 10.4167,
    "longitude": 99.9167,
    "issues": null,
    "fixed": false,
    "valid": true
  },
  {
    "name": "Sail Rock",
    "lat": 9.7167,
    "lng": 100.0667,
    "country": "Thailand",
    "region": "Koh Phangan",
    "description": "Best dive site in the Gulf",
    "siteTypes": [
      "reef",
      "wall"
    ],
    "difficulty": 2,
    "depthMin": 5,
    "depthMax": 30,
    "marineLife": [],
    "averageRating": 0,
    "reviewCount": 0,
    "latitude": 9.7167,
    "longitude": 100.0667,
    "issues": null,
    "fixed": false,
    "valid": true
  },
  {
    "name": "Cod Hole",
    "lat": -14.6167,
    "lng": 146.5833,
    "country": "Australia",
    "region": "Queensland",
    "description": "Friendly giant potato cod",
    "siteTypes": [
      "reef"
    ],
    "difficulty": 2,
    "depthMin": 10,
    "depthMax": 30,
    "marineLife": [],
    "averageRating": 0,
    "reviewCount": 0,
    "latitude": -14.6167,
    "longitude": 146.5833,
    "issues": null,
    "fixed": false,
    "valid": true
  },
  {
    "name": "SS Yongala",
    "lat": -19.3167,
    "lng": 147.6167,
    "country": "Australia",
    "region": "Queensland",
    "description": "Famous wreck dive",
    "siteTypes": [
      "wreck"
    ],
    "difficulty": 3,
    "depthMin": 15,
    "depthMax": 30,
    "marineLife": [],
    "averageRating": 0,
    "reviewCount": 0,
    "latitude": -19.3167,
    "longitude": 147.6167,
    "issues": null,
    "fixed": false,
    "valid": true
  },
  {
    "name": "Ningaloo Reef",
    "lat": -22.1167,
    "lng": 113.7833,
    "country": "Australia",
    "region": "Western Australia",
    "description": "Whale shark aggregation",
    "siteTypes": [
      "reef"
    ],
    "difficulty": 2,
    "depthMin": 5,
    "depthMax": 20,
    "marineLife": [],
    "averageRating": 0,
    "reviewCount": 0,
    "latitude": -22.1167,
    "longitude": 113.7833,
    "issues": null,
    "fixed": false,
    "valid": true
  },
  {
    "name": "Julian Rocks",
    "lat": -28.6333,
    "lng": 153.6,
    "country": "Australia",
    "region": "New South Wales",
    "description": "Shark and ray dive site",
    "siteTypes": [
      "reef"
    ],
    "difficulty": 2,
    "depthMin": 5,
    "depthMax": 25,
    "marineLife": [],
    "averageRating": 0,
    "reviewCount": 0,
    "latitude": -28.6333,
    "longitude": 153.6,
    "issues": null,
    "fixed": false,
    "valid": true
  },
  {
    "name": "Bloody Bay Wall",
    "lat": 19.6833,
    "lng": -80.0833,
    "country": "Cayman Islands",
    "region": "Little Cayman",
    "description": "Famous wall dive",
    "siteTypes": [
      "wall"
    ],
    "difficulty": 2,
    "depthMin": 5,
    "depthMax": 30,
    "marineLife": [],
    "averageRating": 0,
    "reviewCount": 0,
    "latitude": 19.6833,
    "longitude": -80.0833,
    "issues": null,
    "fixed": false,
    "valid": true
  },
  {
    "name": "Stingray City",
    "lat": 19.3667,
    "lng": -81.3667,
    "country": "Cayman Islands",
    "region": "Grand Cayman",
    "description": "Swim with friendly stingrays",
    "siteTypes": [
      "reef"
    ],
    "difficulty": 1,
    "depthMin": 3,
    "depthMax": 12,
    "marineLife": [],
    "averageRating": 0,
    "reviewCount": 0,
    "latitude": 19.3667,
    "longitude": -81.3667,
    "issues": null,
    "fixed": false,
    "valid": true
  },
  {
    "name": "The Wall",
    "lat": 18.2167,
    "lng": -64.6167,
    "country": "Bonaire",
    "region": "Bonaire",
    "description": "Vertical wall drop-off",
    "siteTypes": [
      "wall"
    ],
    "difficulty": 2,
    "depthMin": 5,
    "depthMax": 40,
    "marineLife": [],
    "averageRating": 0,
    "reviewCount": 0,
    "latitude": 18.2167,
    "longitude": -64.6167,
    "issues": null,
    "fixed": false,
    "valid": true
  },
  {
    "name": "Shark Reef",
    "lat": 18.2833,
    "lng": -64.6333,
    "country": "Bonaire",
    "region": "Bonaire",
    "description": "Shark feeding dive",
    "siteTypes": [
      "reef"
    ],
    "difficulty": 3,
    "depthMin": 10,
    "depthMax": 30,
    "marineLife": [],
    "averageRating": 0,
    "reviewCount": 0,
    "latitude": 18.2833,
    "longitude": -64.6333,
    "issues": null,
    "fixed": false,
    "valid": true
  },
  {
    "name": "The Caves",
    "lat": 18.25,
    "lng": -64.65,
    "country": "Bonaire",
    "region": "Bonaire",
    "description": "Underwater cave system",
    "siteTypes": [
      "cave"
    ],
    "difficulty": 3,
    "depthMin": 5,
    "depthMax": 25,
    "marineLife": [],
    "averageRating": 0,
    "reviewCount": 0,
    "latitude": 18.25,
    "longitude": -64.65,
    "issues": null,
    "fixed": false,
    "valid": true
  },
  {
    "name": "Cenote Dos Ojos",
    "lat": 20.3167,
    "lng": -87.4667,
    "country": "Mexico",
    "region": "Yucatan",
    "description": "Famous cenote dive",
    "siteTypes": [
      "cave"
    ],
    "difficulty": 2,
    "depthMin": 5,
    "depthMax": 10,
    "marineLife": [],
    "averageRating": 0,
    "reviewCount": 0,
    "latitude": 20.3167,
    "longitude": -87.4667,
    "issues": null,
    "fixed": false,
    "valid": true
  },
  {
    "name": "Cenote Angelita",
    "lat": 20.3,
    "lng": -87.45,
    "country": "Mexico",
    "region": "Yucatan",
    "description": "Underwater river in cenote",
    "siteTypes": [
      "cave"
    ],
    "difficulty": 3,
    "depthMin": 10,
    "depthMax": 30,
    "marineLife": [],
    "averageRating": 0,
    "reviewCount": 0,
    "latitude": 20.3,
    "longitude": -87.45,
    "issues": null,
    "fixed": false,
    "valid": true
  },
  {
    "name": "Cozumel Reefs",
    "lat": 20.5,
    "lng": -86.95,
    "country": "Mexico",
    "region": "Cozumel",
    "description": "Drift diving paradise",
    "siteTypes": [
      "reef",
      "drift"
    ],
    "difficulty": 2,
    "depthMin": 5,
    "depthMax": 30,
    "marineLife": [],
    "averageRating": 0,
    "reviewCount": 0,
    "latitude": 20.5,
    "longitude": -86.95,
    "issues": null,
    "fixed": false,
    "valid": true
  },
  {
    "name": "Palancar Reef",
    "lat": 20.4833,
    "lng": -86.9833,
    "country": "Mexico",
    "region": "Cozumel",
    "description": "Famous Cozumel reef",
    "siteTypes": [
      "reef"
    ],
    "difficulty": 2,
    "depthMin": 5,
    "depthMax": 30,
    "marineLife": [],
    "averageRating": 0,
    "reviewCount": 0,
    "latitude": 20.4833,
    "longitude": -86.9833,
    "issues": null,
    "fixed": false,
    "valid": true
  },
  {
    "name": "Santa Rosa Wall",
    "lat": 20.4667,
    "lng": -86.9667,
    "country": "Mexico",
    "region": "Cozumel",
    "description": "Wall dive with pelagics",
    "siteTypes": [
      "wall"
    ],
    "difficulty": 3,
    "depthMin": 10,
    "depthMax": 40,
    "marineLife": [],
    "averageRating": 0,
    "reviewCount": 0,
    "latitude": 20.4667,
    "longitude": -86.9667,
    "issues": null,
    "fixed": false,
    "valid": true
  },
  {
    "name": "Darwin Island",
    "lat": 1.6833,
    "lng": -91.9833,
    "country": "Ecuador",
    "region": "Galapagos",
    "description": "Hammerhead shark aggregation",
    "siteTypes": [
      "reef"
    ],
    "difficulty": 4,
    "depthMin": 10,
    "depthMax": 30,
    "marineLife": [],
    "averageRating": 0,
    "reviewCount": 0,
    "latitude": 1.6833,
    "longitude": -91.9833,
    "issues": null,
    "fixed": false,
    "valid": true
  },
  {
    "name": "Wolf Island",
    "lat": 1.3833,
    "lng": -91.8167,
    "country": "Ecuador",
    "region": "Galapagos",
    "description": "Shark and pelagic paradise",
    "siteTypes": [
      "reef"
    ],
    "difficulty": 4,
    "depthMin": 10,
    "depthMax": 30,
    "marineLife": [],
    "averageRating": 0,
    "reviewCount": 0,
    "latitude": 1.3833,
    "longitude": -91.8167,
    "issues": null,
    "fixed": false,
    "valid": true
  },
  {
    "name": "Cousins Rock",
    "lat": -0.7667,
    "lng": -90.2833,
    "country": "Ecuador",
    "region": "Galapagos",
    "description": "Sea lion and penguin dive",
    "siteTypes": [
      "reef"
    ],
    "difficulty": 2,
    "depthMin": 5,
    "depthMax": 20,
    "marineLife": [],
    "averageRating": 0,
    "reviewCount": 0,
    "latitude": -0.7667,
    "longitude": -90.2833,
    "issues": null,
    "fixed": false,
    "valid": true
  },
  {
    "name": "Kicker Rock",
    "lat": -0.8167,
    "lng": -89.6167,
    "country": "Ecuador",
    "region": "Galapagos",
    "description": "Famous rock formation",
    "siteTypes": [
      "reef",
      "wall"
    ],
    "difficulty": 3,
    "depthMin": 5,
    "depthMax": 30,
    "marineLife": [],
    "averageRating": 0,
    "reviewCount": 0,
    "latitude": -0.8167,
    "longitude": -89.6167,
    "issues": null,
    "fixed": false,
    "valid": true
  },
  {
    "name": "Punta Vicente Roca",
    "lat": 0.0167,
    "lng": -91.1167,
    "country": "Ecuador",
    "region": "Galapagos",
    "description": "Mola mola and penguins",
    "siteTypes": [
      "reef"
    ],
    "difficulty": 3,
    "depthMin": 5,
    "depthMax": 30,
    "marineLife": [],
    "averageRating": 0,
    "reviewCount": 0,
    "latitude": 0.0167,
    "longitude": -91.1167,
    "issues": null,
    "fixed": false,
    "valid": true
  },
  {
    "name": "Aliwal Shoal",
    "lat": -30.2667,
    "lng": 30.2667,
    "country": "South Africa",
    "region": "KwaZulu-Natal",
    "description": "Ragged-tooth shark dive",
    "siteTypes": [
      "reef"
    ],
    "difficulty": 3,
    "depthMin": 5,
    "depthMax": 30,
    "marineLife": [],
    "averageRating": 0,
    "reviewCount": 0,
    "latitude": -30.2667,
    "longitude": 30.2667,
    "issues": null,
    "fixed": false,
    "valid": true
  },
  {
    "name": "Sardine Run",
    "lat": -30.2167,
    "lng": 30.2167,
    "country": "South Africa",
    "region": "KwaZulu-Natal",
    "description": "Annual sardine migration",
    "siteTypes": [
      "reef"
    ],
    "difficulty": 3,
    "depthMin": 5,
    "depthMax": 25,
    "marineLife": [],
    "averageRating": 0,
    "reviewCount": 0,
    "latitude": -30.2167,
    "longitude": 30.2167,
    "issues": null,
    "fixed": false,
    "valid": true
  },
  {
    "name": "Protea Banks",
    "lat": -30.2833,
    "lng": 30.2833,
    "country": "South Africa",
    "region": "KwaZulu-Natal",
    "description": "Shark diving site",
    "siteTypes": [
      "reef"
    ],
    "difficulty": 3,
    "depthMin": 10,
    "depthMax": 40,
    "marineLife": [],
    "averageRating": 0,
    "reviewCount": 0,
    "latitude": -30.2833,
    "longitude": 30.2833,
    "issues": null,
    "fixed": false,
    "valid": true
  },
  {
    "name": "Cape Town Kelp Forests",
    "lat": -34.0167,
    "lng": 18.4167,
    "country": "South Africa",
    "region": "Western Cape",
    "description": "Kelp forest diving",
    "siteTypes": [
      "reef"
    ],
    "difficulty": 2,
    "depthMin": 5,
    "depthMax": 20,
    "marineLife": [],
    "averageRating": 0,
    "reviewCount": 0,
    "latitude": -34.0167,
    "longitude": 18.4167,
    "issues": null,
    "fixed": false,
    "valid": true
  },
  {
    "name": "False Bay",
    "lat": -34.1833,
    "lng": 18.4667,
    "country": "South Africa",
    "region": "Western Cape",
    "description": "Great white shark cage diving",
    "siteTypes": [
      "reef"
    ],
    "difficulty": 4,
    "depthMin": 5,
    "depthMax": 15,
    "marineLife": [],
    "averageRating": 0,
    "reviewCount": 0,
    "latitude": -34.1833,
    "longitude": 18.4667,
    "issues": null,
    "fixed": false,
    "valid": true
  },
  {
    "name": "Sipadan",
    "lat": 4.1167,
    "lng": 118.6167,
    "country": "Malaysia",
    "region": "Sabah",
    "description": "Turtle tomb and barracuda tornado",
    "siteTypes": [
      "reef",
      "wall"
    ],
    "difficulty": 3,
    "depthMin": 5,
    "depthMax": 40,
    "marineLife": [],
    "averageRating": 0,
    "reviewCount": 0,
    "latitude": 4.1167,
    "longitude": 118.6167,
    "issues": null,
    "fixed": false,
    "valid": true
  },
  {
    "name": "Layang Layang",
    "lat": 7.3667,
    "lng": 113.8333,
    "country": "Malaysia",
    "region": "Sabah",
    "description": "Hammerhead shark site",
    "siteTypes": [
      "reef"
    ],
    "difficulty": 3,
    "depthMin": 10,
    "depthMax": 30,
    "marineLife": [],
    "averageRating": 0,
    "reviewCount": 0,
    "latitude": 7.3667,
    "longitude": 113.8333,
    "issues": null,
    "fixed": false,
    "valid": true
  },
  {
    "name": "Mabul",
    "lat": 4.25,
    "lng": 118.6333,
    "country": "Malaysia",
    "region": "Sabah",
    "description": "Macro photography paradise",
    "siteTypes": [
      "reef"
    ],
    "difficulty": 2,
    "depthMin": 5,
    "depthMax": 20,
    "marineLife": [],
    "averageRating": 0,
    "reviewCount": 0,
    "latitude": 4.25,
    "longitude": 118.6333,
    "issues": null,
    "fixed": false,
    "valid": true
  },
  {
    "name": "Kapalai",
    "lat": 4.2333,
    "lng": 118.65,
    "country": "Malaysia",
    "region": "Sabah",
    "description": "House reef diving",
    "siteTypes": [
      "reef"
    ],
    "difficulty": 1,
    "depthMin": 3,
    "depthMax": 15,
    "marineLife": [],
    "averageRating": 0,
    "reviewCount": 0,
    "latitude": 4.2333,
    "longitude": 118.65,
    "issues": null,
    "fixed": false,
    "valid": true
  },
  {
    "name": "Mataking",
    "lat": 4.3,
    "lng": 118.6833,
    "country": "Malaysia",
    "region": "Sabah",
    "description": "Wreck and reef diving",
    "siteTypes": [
      "wreck",
      "reef"
    ],
    "difficulty": 2,
    "depthMin": 5,
    "depthMax": 25,
    "marineLife": [],
    "averageRating": 0,
    "reviewCount": 0,
    "latitude": 4.3,
    "longitude": 118.6833,
    "issues": null,
    "fixed": false,
    "valid": true
  },
  {
    "name": "Yonaguni",
    "lat": 24.45,
    "lng": 122.9333,
    "country": "Japan",
    "region": "Okinawa",
    "description": "Mysterious underwater ruins",
    "siteTypes": [
      "reef"
    ],
    "difficulty": 3,
    "depthMin": 5,
    "depthMax": 30,
    "marineLife": [],
    "averageRating": 0,
    "reviewCount": 0,
    "latitude": 24.45,
    "longitude": 122.9333,
    "issues": null,
    "fixed": false,
    "valid": true
  },
  {
    "name": "Kerama Islands",
    "lat": 26.2,
    "lng": 127.3167,
    "country": "Japan",
    "region": "Okinawa",
    "description": "Crystal clear water diving",
    "siteTypes": [
      "reef"
    ],
    "difficulty": 2,
    "depthMin": 5,
    "depthMax": 25,
    "marineLife": [],
    "averageRating": 0,
    "reviewCount": 0,
    "latitude": 26.2,
    "longitude": 127.3167,
    "issues": null,
    "fixed": false,
    "valid": true
  },
  {
    "name": "Ishigaki",
    "lat": 24.3333,
    "lng": 124.15,
    "country": "Japan",
    "region": "Okinawa",
    "description": "Manta ray cleaning station",
    "siteTypes": [
      "reef"
    ],
    "difficulty": 2,
    "depthMin": 5,
    "depthMax": 20,
    "marineLife": [],
    "averageRating": 0,
    "reviewCount": 0,
    "latitude": 24.3333,
    "longitude": 124.15,
    "issues": null,
    "fixed": false,
    "valid": true
  },
  {
    "name": "Miyakojima",
    "lat": 24.8,
    "lng": 125.2833,
    "country": "Japan",
    "region": "Okinawa",
    "description": "Beautiful coral reefs",
    "siteTypes": [
      "reef"
    ],
    "difficulty": 2,
    "depthMin": 5,
    "depthMax": 25,
    "marineLife": [],
    "averageRating": 0,
    "reviewCount": 0,
    "latitude": 24.8,
    "longitude": 125.2833,
    "issues": null,
    "fixed": false,
    "valid": true
  },
  {
    "name": "Okinawa Main Island",
    "lat": 26.5,
    "lng": 127.8,
    "country": "Japan",
    "region": "Okinawa",
    "description": "Variety of dive sites",
    "siteTypes": [
      "reef",
      "wreck"
    ],
    "difficulty": 2,
    "depthMin": 5,
    "depthMax": 30,
    "marineLife": [],
    "averageRating": 0,
    "reviewCount": 0,
    "latitude": 26.5,
    "longitude": 127.8,
    "issues": null,
    "fixed": false,
    "valid": true
  },
  {
    "name": "Palau Blue Corner",
    "lat": 7.1667,
    "lng": 134.5167,
    "country": "Palau",
    "region": "Palau",
    "description": "Shark and current diving",
    "siteTypes": [
      "reef"
    ],
    "difficulty": 4,
    "depthMin": 10,
    "depthMax": 30,
    "marineLife": [],
    "averageRating": 0,
    "reviewCount": 0,
    "latitude": 7.1667,
    "longitude": 134.5167,
    "issues": null,
    "fixed": false,
    "valid": true
  },
  {
    "name": "Jellyfish Lake",
    "lat": 7.1667,
    "lng": 134.3833,
    "country": "Palau",
    "region": "Palau",
    "description": "Swim with harmless jellyfish",
    "siteTypes": [
      "reef"
    ],
    "difficulty": 1,
    "depthMin": null,
    "depthMax": 15,
    "marineLife": [],
    "averageRating": 0,
    "reviewCount": 0,
    "latitude": 7.1667,
    "longitude": 134.3833,
    "issues": null,
    "fixed": false,
    "valid": true
  },
  {
    "name": "German Channel",
    "lat": 7.15,
    "lng": 134.5,
    "country": "Palau",
    "region": "Palau",
    "description": "Manta ray cleaning station",
    "siteTypes": [
      "reef"
    ],
    "difficulty": 2,
    "depthMin": 5,
    "depthMax": 20,
    "marineLife": [],
    "averageRating": 0,
    "reviewCount": 0,
    "latitude": 7.15,
    "longitude": 134.5,
    "issues": null,
    "fixed": false,
    "valid": true
  },
  {
    "name": "Ulong Channel",
    "lat": 7.1333,
    "lng": 134.4833,
    "country": "Palau",
    "region": "Palau",
    "description": "Drift dive with sharks",
    "siteTypes": [
      "reef",
      "drift"
    ],
    "difficulty": 3,
    "depthMin": 5,
    "depthMax": 30,
    "marineLife": [],
    "averageRating": 0,
    "reviewCount": 0,
    "latitude": 7.1333,
    "longitude": 134.4833,
    "issues": null,
    "fixed": false,
    "valid": true
  },
  {
    "name": "Siaes Tunnel",
    "lat": 7.1167,
    "lng": 134.4667,
    "country": "Palau",
    "region": "Palau",
    "description": "Underwater tunnel dive",
    "siteTypes": [
      "cave"
    ],
    "difficulty": 3,
    "depthMin": 10,
    "depthMax": 30,
    "marineLife": [],
    "averageRating": 0,
    "reviewCount": 0,
    "latitude": 7.1167,
    "longitude": 134.4667,
    "issues": null,
    "fixed": false,
    "valid": true
  },
  {
    "name": "Fiji Great White Wall",
    "lat": -17.7833,
    "lng": 177.2667,
    "country": "Fiji",
    "region": "Taveuni",
    "description": "Famous wall dive",
    "siteTypes": [
      "wall"
    ],
    "difficulty": 3,
    "depthMin": 5,
    "depthMax": 30,
    "marineLife": [],
    "averageRating": 0,
    "reviewCount": 0,
    "latitude": -17.7833,
    "longitude": 177.2667,
    "issues": null,
    "fixed": false,
    "valid": true
  },
  {
    "name": "Rainbow Reef",
    "lat": -17.7667,
    "lng": 177.2833,
    "country": "Fiji",
    "region": "Taveuni",
    "description": "Colorful soft corals",
    "siteTypes": [
      "reef"
    ],
    "difficulty": 2,
    "depthMin": 5,
    "depthMax": 25,
    "marineLife": [],
    "averageRating": 0,
    "reviewCount": 0,
    "latitude": -17.7667,
    "longitude": 177.2833,
    "issues": null,
    "fixed": false,
    "valid": true
  },
  {
    "name": "Beqa Lagoon",
    "lat": -18.3667,
    "lng": 178.4167,
    "country": "Fiji",
    "region": "Viti Levu",
    "description": "Shark feeding dive",
    "siteTypes": [
      "reef"
    ],
    "difficulty": 3,
    "depthMin": 5,
    "depthMax": 20,
    "marineLife": [],
    "averageRating": 0,
    "reviewCount": 0,
    "latitude": -18.3667,
    "longitude": 178.4167,
    "issues": null,
    "fixed": false,
    "valid": true
  },
  {
    "name": "Namena Marine Reserve",
    "lat": -17.1167,
    "lng": 179.0167,
    "country": "Fiji",
    "region": "Vanua Levu",
    "description": "Pristine reef diving",
    "siteTypes": [
      "reef"
    ],
    "difficulty": 2,
    "depthMin": 5,
    "depthMax": 30,
    "marineLife": [],
    "averageRating": 0,
    "reviewCount": 0,
    "latitude": -17.1167,
    "longitude": 179.0167,
    "issues": null,
    "fixed": false,
    "valid": true
  },
  {
    "name": "Bligh Water",
    "lat": -17.5,
    "lng": 178.5,
    "country": "Fiji",
    "region": "Fiji",
    "description": "Pelagic and shark diving",
    "siteTypes": [
      "reef"
    ],
    "difficulty": 3,
    "depthMin": 10,
    "depthMax": 40,
    "marineLife": [],
    "averageRating": 0,
    "reviewCount": 0,
    "latitude": -17.5,
    "longitude": 178.5,
    "issues": null,
    "fixed": false,
    "valid": true
  },
  {
    "name": "Socorro Islands",
    "lat": 18.7833,
    "lng": -111,
    "country": "Mexico",
    "region": "Revillagigedo",
    "description": "Giant mantas and dolphins",
    "siteTypes": [
      "reef"
    ],
    "difficulty": 4,
    "depthMin": 10,
    "depthMax": 30,
    "marineLife": [],
    "averageRating": 0,
    "reviewCount": 0,
    "latitude": 18.7833,
    "longitude": -111,
    "issues": null,
    "fixed": false,
    "valid": true
  },
  {
    "name": "Cocos Island",
    "lat": 5.5167,
    "lng": -87.05,
    "country": "Costa Rica",
    "region": "Cocos Island",
    "description": "Hammerhead shark aggregation",
    "siteTypes": [
      "reef"
    ],
    "difficulty": 4,
    "depthMin": 10,
    "depthMax": 30,
    "marineLife": [],
    "averageRating": 0,
    "reviewCount": 0,
    "latitude": 5.5167,
    "longitude": -87.05,
    "issues": null,
    "fixed": false,
    "valid": true
  },
  {
    "name": "Malpelo Island",
    "lat": 3.9833,
    "lng": -81.7167,
    "country": "Colombia",
    "region": "Malpelo",
    "description": "Shark diving paradise",
    "siteTypes": [
      "reef"
    ],
    "difficulty": 4,
    "depthMin": 10,
    "depthMax": 40,
    "marineLife": [],
    "averageRating": 0,
    "reviewCount": 0,
    "latitude": 3.9833,
    "longitude": -81.7167,
    "issues": null,
    "fixed": false,
    "valid": true
  },
  {
    "name": "Socorro Mantas",
    "lat": 18.8,
    "lng": -111.0167,
    "country": "Mexico",
    "region": "Revillagigedo",
    "description": "Manta ray cleaning station",
    "siteTypes": [
      "reef"
    ],
    "difficulty": 3,
    "depthMin": 10,
    "depthMax": 25,
    "marineLife": [],
    "averageRating": 0,
    "reviewCount": 0,
    "latitude": 18.8,
    "longitude": -111.0167,
    "issues": null,
    "fixed": false,
    "valid": true
  },
  {
    "name": "Roca Partida",
    "lat": 18.8167,
    "lng": -111.0333,
    "country": "Mexico",
    "region": "Revillagigedo",
    "description": "Pelagic and shark site",
    "siteTypes": [
      "reef"
    ],
    "difficulty": 4,
    "depthMin": 10,
    "depthMax": 35,
    "marineLife": [],
    "averageRating": 0,
    "reviewCount": 0,
    "latitude": 18.8167,
    "longitude": -111.0333,
    "issues": null,
    "fixed": false,
    "valid": true
  },
  {
    "name": "Dunraven Wreck",
    "lat": 27.8,
    "lng": 34.3167,
    "country": "Egypt",
    "region": "Sharm El Sheikh",
    "description": "British steamship wreck from 1876. Covered in corals and home to diverse marine life.",
    "siteTypes": [
      "wreck"
    ],
    "difficulty": 2,
    "depthMin": 15,
    "depthMax": 30,
    "marineLife": [],
    "averageRating": 0,
    "reviewCount": 0,
    "latitude": 27.8,
    "longitude": 34.3167,
    "issues": null,
    "fixed": false,
    "valid": true
  },
  {
    "name": "Giannis D Wreck",
    "lat": 27.8167,
    "lng": 34.3333,
    "country": "Egypt",
    "region": "Sharm El Sheikh",
    "description": "Greek cargo ship wreck from 1983. Beautiful coral growth and diverse marine life.",
    "siteTypes": [
      "wreck"
    ],
    "difficulty": 2,
    "depthMin": 15,
    "depthMax": 27,
    "marineLife": [],
    "averageRating": 0,
    "reviewCount": 0,
    "latitude": 27.8167,
    "longitude": 34.3333,
    "issues": null,
    "fixed": false,
    "valid": true
  },
  {
    "name": "Carnatic Wreck",
    "lat": 27.8333,
    "lng": 34.35,
    "country": "Egypt",
    "region": "Sharm El Sheikh",
    "description": "Historic wreck from 1869. One of the oldest wrecks in the Red Sea.",
    "siteTypes": [
      "wreck"
    ],
    "difficulty": 3,
    "depthMin": 20,
    "depthMax": 30,
    "marineLife": [],
    "averageRating": 0,
    "reviewCount": 0,
    "latitude": 27.8333,
    "longitude": 34.35,
    "issues": null,
    "fixed": false,
    "valid": true
  },
  {
    "name": "Rosalie Moller",
    "lat": 27.85,
    "lng": 34.3667,
    "country": "Egypt",
    "region": "Red Sea",
    "description": "British freighter wreck from World War II. Deep wreck dive for advanced divers.",
    "siteTypes": [
      "wreck"
    ],
    "difficulty": 4,
    "depthMin": 30,
    "depthMax": 50,
    "marineLife": [],
    "averageRating": 0,
    "reviewCount": 0,
    "latitude": 27.85,
    "longitude": 34.3667,
    "issues": null,
    "fixed": false,
    "valid": true
  },
  {
    "name": "Abu Nuhas",
    "lat": 27.8667,
    "lng": 34.3833,
    "country": "Egypt",
    "region": "Red Sea",
    "description": "Reef system known as the Ships Graveyard. Multiple wrecks including the Giannis D, Carnatic, and others.",
    "siteTypes": [
      "wreck",
      "reef"
    ],
    "difficulty": 3,
    "depthMin": 15,
    "depthMax": 30,
    "marineLife": [],
    "averageRating": 0,
    "reviewCount": 0,
    "latitude": 27.8667,
    "longitude": 34.3833,
    "issues": null,
    "fixed": false,
    "valid": true
  },
  {
    "name": "Gubal Island",
    "lat": 27.8833,
    "lng": 34.4,
    "country": "Egypt",
    "region": "Red Sea",
    "description": "Island with beautiful reef systems. Good for both beginners and advanced divers.",
    "siteTypes": [
      "reef"
    ],
    "difficulty": 2,
    "depthMin": 5,
    "depthMax": 30,
    "marineLife": [],
    "averageRating": 0,
    "reviewCount": 0,
    "latitude": 27.8833,
    "longitude": 34.4,
    "issues": null,
    "fixed": false,
    "valid": true
  },
  {
    "name": "Small Giftun",
    "lat": 27.2667,
    "lng": 33.8333,
    "country": "Egypt",
    "region": "Hurghada",
    "description": "Island with beautiful coral reefs. Popular for day trips from Hurghada.",
    "siteTypes": [
      "reef"
    ],
    "difficulty": 2,
    "depthMin": 5,
    "depthMax": 25,
    "marineLife": [],
    "averageRating": 0,
    "reviewCount": 0,
    "latitude": 27.2667,
    "longitude": 33.8333,
    "issues": null,
    "fixed": false,
    "valid": true
  },
  {
    "name": "Big Giftun",
    "lat": 27.2833,
    "lng": 33.85,
    "country": "Egypt",
    "region": "Hurghada",
    "description": "Larger island with multiple dive sites. Beautiful coral formations and diverse marine life.",
    "siteTypes": [
      "reef"
    ],
    "difficulty": 2,
    "depthMin": 5,
    "depthMax": 30,
    "marineLife": [],
    "averageRating": 0,
    "reviewCount": 0,
    "latitude": 27.2833,
    "longitude": 33.85,
    "issues": null,
    "fixed": false,
    "valid": true
  },
  {
    "name": "Erg Somaya",
    "lat": 27.3,
    "lng": 33.8667,
    "country": "Egypt",
    "region": "Hurghada",
    "description": "Reef system with beautiful coral formations. Good visibility and diverse marine life.",
    "siteTypes": [
      "reef"
    ],
    "difficulty": 2,
    "depthMin": 5,
    "depthMax": 25,
    "marineLife": [],
    "averageRating": 0,
    "reviewCount": 0,
    "latitude": 27.3,
    "longitude": 33.8667,
    "issues": null,
    "fixed": false,
    "valid": true
  },
  {
    "name": "Shaab El Erg",
    "lat": 27.3167,
    "lng": 33.8833,
    "country": "Egypt",
    "region": "Hurghada",
    "description": "Reef known for dolphin encounters. Beautiful coral formations and diverse marine life.",
    "siteTypes": [
      "reef"
    ],
    "difficulty": 2,
    "depthMin": 5,
    "depthMax": 25,
    "marineLife": [],
    "averageRating": 0,
    "reviewCount": 0,
    "latitude": 27.3167,
    "longitude": 33.8833,
    "issues": null,
    "fixed": false,
    "valid": true
  },
  {
    "name": "Shaab El Fanadir",
    "lat": 27.3667,
    "lng": 33.9333,
    "country": "Egypt",
    "region": "Hurghada",
    "description": "Reef system with multiple dive sites. Beautiful coral gardens and walls.",
    "siteTypes": [
      "reef",
      "wall"
    ],
    "difficulty": 2,
    "depthMin": 5,
    "depthMax": 30,
    "marineLife": [],
    "averageRating": 0,
    "reviewCount": 0,
    "latitude": 27.3667,
    "longitude": 33.9333,
    "issues": null,
    "fixed": false,
    "valid": true
  },
  {
    "name": "Shaab El Umm Gammar",
    "lat": 27.3833,
    "lng": 33.95,
    "country": "Egypt",
    "region": "Hurghada",
    "description": "Reef with beautiful coral formations. Good for both beginners and advanced divers.",
    "siteTypes": [
      "reef"
    ],
    "difficulty": 2,
    "depthMin": 5,
    "depthMax": 25,
    "marineLife": [],
    "averageRating": 0,
    "reviewCount": 0,
    "latitude": 27.3833,
    "longitude": 33.95,
    "issues": null,
    "fixed": false,
    "valid": true
  },
  {
    "name": "Shark Observatory",
    "lat": 27.7833,
    "lng": 34.35,
    "country": "Egypt",
    "region": "Ras Mohammed",
    "description": "Reef in Ras Mohammed with observation point for sharks. Beautiful wall diving with abundant marine life.",
    "siteTypes": [
      "reef",
      "wall"
    ],
    "difficulty": 3,
    "depthMin": 10,
    "depthMax": 40,
    "marineLife": [],
    "averageRating": 0,
    "reviewCount": 0,
    "latitude": 27.7833,
    "longitude": 34.35,
    "issues": null,
    "fixed": false,
    "valid": true
  },
  {
    "name": "Marsa Shagra",
    "lat": 25.0833,
    "lng": 34.6833,
    "country": "Egypt",
    "region": "Marsa Alam",
    "description": "Bay with beautiful coral gardens and diverse marine life. Good for beginners and snorkelers.",
    "siteTypes": [
      "reef",
      "shore"
    ],
    "difficulty": 1,
    "depthMin": 3,
    "depthMax": 15,
    "marineLife": [],
    "averageRating": 0,
    "reviewCount": 0,
    "latitude": 25.0833,
    "longitude": 34.6833,
    "issues": null,
    "fixed": false,
    "valid": true
  },
  {
    "name": "Marsa Nakari",
    "lat": 25.0667,
    "lng": 34.6667,
    "country": "Egypt",
    "region": "Marsa Alam",
    "description": "Bay with beautiful coral formations and diverse marine life. Good for beginners.",
    "siteTypes": [
      "reef",
      "shore"
    ],
    "difficulty": 1,
    "depthMin": 3,
    "depthMax": 15,
    "marineLife": [],
    "averageRating": 0,
    "reviewCount": 0,
    "latitude": 25.0667,
    "longitude": 34.6667,
    "issues": null,
    "fixed": false,
    "valid": true
  },
  {
    "name": "Marsa Mubarak",
    "lat": 25.05,
    "lng": 34.65,
    "country": "Egypt",
    "region": "Marsa Alam",
    "description": "Bay with beautiful coral gardens and diverse marine life. Good for beginners and snorkelers.",
    "siteTypes": [
      "reef",
      "shore"
    ],
    "difficulty": 1,
    "depthMin": 3,
    "depthMax": 15,
    "marineLife": [],
    "averageRating": 0,
    "reviewCount": 0,
    "latitude": 25.05,
    "longitude": 34.65,
    "issues": null,
    "fixed": false,
    "valid": true
  },
  {
    "name": "Marsa Ghozlani",
    "lat": 27.85,
    "lng": 34.3,
    "country": "Egypt",
    "region": "Sharm El Sheikh",
    "description": "Bay with beautiful coral gardens and diverse marine life. Good for beginners and snorkelers.",
    "siteTypes": [
      "reef",
      "shore"
    ],
    "difficulty": 1,
    "depthMin": 3,
    "depthMax": 15,
    "marineLife": [],
    "averageRating": 0,
    "reviewCount": 0,
    "latitude": 27.85,
    "longitude": 34.3,
    "issues": null,
    "fixed": false,
    "valid": true
  },
  {
    "name": "Marsa Bareika",
    "lat": 27.8333,
    "lng": 34.3167,
    "country": "Egypt",
    "region": "Sharm El Sheikh",
    "description": "Bay with beautiful coral formations and diverse marine life. Good for beginners.",
    "siteTypes": [
      "reef",
      "shore"
    ],
    "difficulty": 1,
    "depthMin": 3,
    "depthMax": 15,
    "marineLife": [],
    "averageRating": 0,
    "reviewCount": 0,
    "latitude": 27.8333,
    "longitude": 34.3167,
    "issues": null,
    "fixed": false,
    "valid": true
  },
  {
    "name": "Near Garden",
    "lat": 27.7333,
    "lng": 34.3,
    "country": "Egypt",
    "region": "Ras Mohammed",
    "description": "Reef near Ras Mohammed with beautiful coral gardens. Good for beginners and photography.",
    "siteTypes": [
      "reef"
    ],
    "difficulty": 2,
    "depthMin": 5,
    "depthMax": 25,
    "marineLife": [],
    "averageRating": 0,
    "reviewCount": 0,
    "latitude": 27.7333,
    "longitude": 34.3,
    "issues": null,
    "fixed": false,
    "valid": true
  },
  {
    "name": "Far Garden",
    "lat": 27.75,
    "lng": 34.3167,
    "country": "Egypt",
    "region": "Ras Mohammed",
    "description": "Reef in Ras Mohammed with beautiful coral gardens. Good for beginners and photography.",
    "siteTypes": [
      "reef"
    ],
    "difficulty": 2,
    "depthMin": 5,
    "depthMax": 25,
    "marineLife": [],
    "averageRating": 0,
    "reviewCount": 0,
    "latitude": 27.75,
    "longitude": 34.3167,
    "issues": null,
    "fixed": false,
    "valid": true
  },
  {
    "name": "Jackfish Alley",
    "lat": 27.7667,
    "lng": 34.3333,
    "country": "Egypt",
    "region": "Ras Mohammed",
    "description": "Reef in Ras Mohammed known for jackfish schools. Beautiful coral formations and diverse marine life.",
    "siteTypes": [
      "reef"
    ],
    "difficulty": 2,
    "depthMin": 5,
    "depthMax": 25,
    "marineLife": [],
    "averageRating": 0,
    "reviewCount": 0,
    "latitude": 27.7667,
    "longitude": 34.3333,
    "issues": null,
    "fixed": false,
    "valid": true
  },
  {
    "name": "Temple",
    "lat": 27.75,
    "lng": 34.2833,
    "country": "Egypt",
    "region": "Ras Mohammed",
    "description": "Reef in Ras Mohammed with beautiful coral formations. Named for its temple-like structure.",
    "siteTypes": [
      "reef"
    ],
    "difficulty": 2,
    "depthMin": 5,
    "depthMax": 30,
    "marineLife": [],
    "averageRating": 0,
    "reviewCount": 0,
    "latitude": 27.75,
    "longitude": 34.2833,
    "issues": null,
    "fixed": false,
    "valid": true
  },
  {
    "name": "Jolanda Reef",
    "lat": 27.7167,
    "lng": 34.2667,
    "country": "Egypt",
    "region": "Ras Mohammed",
    "description": "Reef in Ras Mohammed with wreck of the Jolanda. Beautiful coral formations and diverse marine life.",
    "siteTypes": [
      "reef",
      "wreck"
    ],
    "difficulty": 2,
    "depthMin": 5,
    "depthMax": 30,
    "marineLife": [],
    "averageRating": 0,
    "reviewCount": 0,
    "latitude": 27.7167,
    "longitude": 34.2667,
    "issues": null,
    "fixed": false,
    "valid": true
  },
  {
    "name": "Ras Um Sid",
    "lat": 27.8667,
    "lng": 34.2833,
    "country": "Egypt",
    "region": "Sharm El Sheikh",
    "description": "Reef near Sharm El Sheikh with beautiful coral formations. Good for beginners and night diving.",
    "siteTypes": [
      "reef"
    ],
    "difficulty": 2,
    "depthMin": 5,
    "depthMax": 25,
    "marineLife": [],
    "averageRating": 0,
    "reviewCount": 0,
    "latitude": 27.8667,
    "longitude": 34.2833,
    "issues": null,
    "fixed": false,
    "valid": true
  },
  {
    "name": "Straits of Tiran",
    "lat": 27.9333,
    "lng": 34.55,
    "country": "Egypt",
    "region": "Sharm El Sheikh",
    "description": "Famous channel between Tiran Island and the Sinai Peninsula. Strong currents bring pelagic fish.",
    "siteTypes": [
      "reef",
      "drift"
    ],
    "difficulty": 3,
    "depthMin": 10,
    "depthMax": 40,
    "marineLife": [],
    "averageRating": 0,
    "reviewCount": 0,
    "latitude": 27.9333,
    "longitude": 34.55,
    "issues": null,
    "fixed": false,
    "valid": true
  },
  {
    "name": "Lion's Head",
    "lat": 4.25,
    "lng": 73.5,
    "country": "Maldives",
    "region": "North Male Atoll",
    "description": "Reef with beautiful coral formations. Known for lionfish and diverse marine life.",
    "siteTypes": [
      "reef"
    ],
    "difficulty": 2,
    "depthMin": 5,
    "depthMax": 25,
    "marineLife": [],
    "averageRating": 0,
    "reviewCount": 0,
    "latitude": 4.25,
    "longitude": 73.5,
    "issues": null,
    "fixed": false,
    "valid": true
  },
  {
    "name": "HP Reef",
    "lat": 4.2,
    "lng": 73.45,
    "country": "Maldives",
    "region": "North Male Atoll",
    "description": "Reef with beautiful coral formations. Good for beginners and intermediate divers.",
    "siteTypes": [
      "reef"
    ],
    "difficulty": 2,
    "depthMin": 5,
    "depthMax": 25,
    "marineLife": [],
    "averageRating": 0,
    "reviewCount": 0,
    "latitude": 4.2,
    "longitude": 73.45,
    "issues": null,
    "fixed": false,
    "valid": true
  },
  {
    "name": "Kuda Haa",
    "lat": 4.1667,
    "lng": 73.4,
    "country": "Maldives",
    "region": "North Male Atoll",
    "description": "Reef with beautiful coral formations. Good visibility and diverse marine life.",
    "siteTypes": [
      "reef"
    ],
    "difficulty": 2,
    "depthMin": 5,
    "depthMax": 25,
    "marineLife": [],
    "averageRating": 0,
    "reviewCount": 0,
    "latitude": 4.1667,
    "longitude": 73.4,
    "issues": null,
    "fixed": false,
    "valid": true
  },
  {
    "name": "Girifushi Thila",
    "lat": 4.1333,
    "lng": 73.3667,
    "country": "Maldives",
    "region": "North Male Atoll",
    "description": "Reef with beautiful coral formations. Good for beginners and intermediate divers.",
    "siteTypes": [
      "reef"
    ],
    "difficulty": 2,
    "depthMin": 5,
    "depthMax": 25,
    "marineLife": [],
    "averageRating": 0,
    "reviewCount": 0,
    "latitude": 4.1333,
    "longitude": 73.3667,
    "issues": null,
    "fixed": false,
    "valid": true
  },
  {
    "name": "Okobe Thila",
    "lat": 4.1,
    "lng": 73.3333,
    "country": "Maldives",
    "region": "North Male Atoll",
    "description": "Reef with beautiful coral formations. Good visibility and diverse marine life.",
    "siteTypes": [
      "reef"
    ],
    "difficulty": 2,
    "depthMin": 5,
    "depthMax": 25,
    "marineLife": [],
    "averageRating": 0,
    "reviewCount": 0,
    "latitude": 4.1,
    "longitude": 73.3333,
    "issues": null,
    "fixed": false,
    "valid": true
  },
  {
    "name": "Rasdhoo Atoll",
    "lat": 4.0333,
    "lng": 72.9833,
    "country": "Maldives",
    "region": "Ari Atoll",
    "description": "Atoll with beautiful coral formations. Good for beginners and intermediate divers.",
    "siteTypes": [
      "reef"
    ],
    "difficulty": 2,
    "depthMin": 5,
    "depthMax": 30,
    "marineLife": [],
    "averageRating": 0,
    "reviewCount": 0,
    "latitude": 4.0333,
    "longitude": 72.9833,
    "issues": null,
    "fixed": false,
    "valid": true
  },
  {
    "name": "Fesdu Wreck",
    "lat": 4.05,
    "lng": 73.0167,
    "country": "Maldives",
    "region": "Ari Atoll",
    "description": "Wreck dive with beautiful coral growth. Good for wreck diving enthusiasts.",
    "siteTypes": [
      "wreck"
    ],
    "difficulty": 2,
    "depthMin": 15,
    "depthMax": 30,
    "marineLife": [],
    "averageRating": 0,
    "reviewCount": 0,
    "latitude": 4.05,
    "longitude": 73.0167,
    "issues": null,
    "fixed": false,
    "valid": true
  },
  {
    "name": "Madivaru",
    "lat": 4.0833,
    "lng": 73.05,
    "country": "Maldives",
    "region": "Ari Atoll",
    "description": "Reef with beautiful coral formations. Good visibility and diverse marine life.",
    "siteTypes": [
      "reef"
    ],
    "difficulty": 2,
    "depthMin": 5,
    "depthMax": 25,
    "marineLife": [],
    "averageRating": 0,
    "reviewCount": 0,
    "latitude": 4.0833,
    "longitude": 73.05,
    "issues": null,
    "fixed": false,
    "valid": true
  },
  {
    "name": "Panettone",
    "lat": 4.1167,
    "lng": 73.0833,
    "country": "Maldives",
    "region": "Ari Atoll",
    "description": "Reef with beautiful coral formations. Good for beginners and intermediate divers.",
    "siteTypes": [
      "reef"
    ],
    "difficulty": 2,
    "depthMin": 5,
    "depthMax": 25,
    "marineLife": [],
    "averageRating": 0,
    "reviewCount": 0,
    "latitude": 4.1167,
    "longitude": 73.0833,
    "issues": null,
    "fixed": false,
    "valid": true
  },
  {
    "name": "Himmafushi Thila",
    "lat": 4.15,
    "lng": 73.1167,
    "country": "Maldives",
    "region": "North Male Atoll",
    "description": "Reef with beautiful coral formations. Good visibility and diverse marine life.",
    "siteTypes": [
      "reef"
    ],
    "difficulty": 2,
    "depthMin": 5,
    "depthMax": 25,
    "marineLife": [],
    "averageRating": 0,
    "reviewCount": 0,
    "latitude": 4.15,
    "longitude": 73.1167,
    "issues": null,
    "fixed": false,
    "valid": true
  },
  {
    "name": "Kuda Rah Thila",
    "lat": 4.1833,
    "lng": 73.15,
    "country": "Maldives",
    "region": "North Male Atoll",
    "description": "Reef with beautiful coral formations. Good for beginners and intermediate divers.",
    "siteTypes": [
      "reef"
    ],
    "difficulty": 2,
    "depthMin": 5,
    "depthMax": 25,
    "marineLife": [],
    "averageRating": 0,
    "reviewCount": 0,
    "latitude": 4.1833,
    "longitude": 73.15,
    "issues": null,
    "fixed": false,
    "valid": true
  },
  {
    "name": "Kandooma Thila",
    "lat": 4.2167,
    "lng": 73.1833,
    "country": "Maldives",
    "region": "South Male Atoll",
    "description": "Reef with beautiful coral formations. Good visibility and diverse marine life.",
    "siteTypes": [
      "reef"
    ],
    "difficulty": 2,
    "depthMin": 5,
    "depthMax": 25,
    "marineLife": [],
    "averageRating": 0,
    "reviewCount": 0,
    "latitude": 4.2167,
    "longitude": 73.1833,
    "issues": null,
    "fixed": false,
    "valid": true
  },
  {
    "name": "Embudhu Express",
    "lat": 4.25,
    "lng": 73.2167,
    "country": "Maldives",
    "region": "South Male Atoll",
    "description": "Drift dive with strong currents. Beautiful coral formations and diverse marine life.",
    "siteTypes": [
      "reef",
      "drift"
    ],
    "difficulty": 3,
    "depthMin": 10,
    "depthMax": 30,
    "marineLife": [],
    "averageRating": 0,
    "reviewCount": 0,
    "latitude": 4.25,
    "longitude": 73.2167,
    "issues": null,
    "fixed": false,
    "valid": true
  },
  {
    "name": "Gulhi Thila",
    "lat": 4.2833,
    "lng": 73.25,
    "country": "Maldives",
    "region": "South Male Atoll",
    "description": "Reef with beautiful coral formations. Good for beginners and intermediate divers.",
    "siteTypes": [
      "reef"
    ],
    "difficulty": 2,
    "depthMin": 5,
    "depthMax": 25,
    "marineLife": [],
    "averageRating": 0,
    "reviewCount": 0,
    "latitude": 4.2833,
    "longitude": 73.25,
    "issues": null,
    "fixed": false,
    "valid": true
  },
  {
    "name": "Kuda Giri",
    "lat": 4.3167,
    "lng": 73.2833,
    "country": "Maldives",
    "region": "South Male Atoll",
    "description": "Reef with beautiful coral formations. Good visibility and diverse marine life.",
    "siteTypes": [
      "reef"
    ],
    "difficulty": 2,
    "depthMin": 5,
    "depthMax": 25,
    "marineLife": [],
    "averageRating": 0,
    "reviewCount": 0,
    "latitude": 4.3167,
    "longitude": 73.2833,
    "issues": null,
    "fixed": false,
    "valid": true
  },
  {
    "name": "Vaadhoo Caves",
    "lat": 4.35,
    "lng": 73.3167,
    "country": "Maldives",
    "region": "South Male Atoll",
    "description": "Cave dive with beautiful formations. Advanced diving recommended.",
    "siteTypes": [
      "reef",
      "cave"
    ],
    "difficulty": 3,
    "depthMin": 10,
    "depthMax": 30,
    "marineLife": [],
    "averageRating": 0,
    "reviewCount": 0,
    "latitude": 4.35,
    "longitude": 73.3167,
    "issues": null,
    "fixed": false,
    "valid": true
  },
  {
    "name": "Rangali Madivaru",
    "lat": 3.7833,
    "lng": 72.8333,
    "country": "Maldives",
    "region": "Ari Atoll",
    "description": "Reef with beautiful coral formations. Good for beginners and intermediate divers.",
    "siteTypes": [
      "reef"
    ],
    "difficulty": 2,
    "depthMin": 5,
    "depthMax": 25,
    "marineLife": [],
    "averageRating": 0,
    "reviewCount": 0,
    "latitude": 3.7833,
    "longitude": 72.8333,
    "issues": null,
    "fixed": false,
    "valid": true
  },
  {
    "name": "Kudarah Thila",
    "lat": 3.8167,
    "lng": 72.8667,
    "country": "Maldives",
    "region": "Ari Atoll",
    "description": "Reef with beautiful coral formations. Good visibility and diverse marine life.",
    "siteTypes": [
      "reef"
    ],
    "difficulty": 2,
    "depthMin": 5,
    "depthMax": 25,
    "marineLife": [],
    "averageRating": 0,
    "reviewCount": 0,
    "latitude": 3.8167,
    "longitude": 72.8667,
    "issues": null,
    "fixed": false,
    "valid": true
  },
  {
    "name": "Halaveli Wreck",
    "lat": 3.85,
    "lng": 72.9,
    "country": "Maldives",
    "region": "Ari Atoll",
    "description": "Wreck dive with beautiful coral growth. Good for wreck diving enthusiasts.",
    "siteTypes": [
      "wreck"
    ],
    "difficulty": 2,
    "depthMin": 15,
    "depthMax": 30,
    "marineLife": [],
    "averageRating": 0,
    "reviewCount": 0,
    "latitude": 3.85,
    "longitude": 72.9,
    "issues": null,
    "fixed": false,
    "valid": true
  },
  {
    "name": "Himmafushi Corner",
    "lat": 3.8833,
    "lng": 72.9333,
    "country": "Maldives",
    "region": "Ari Atoll",
    "description": "Corner dive with strong currents. Beautiful coral formations and diverse marine life.",
    "siteTypes": [
      "reef"
    ],
    "difficulty": 3,
    "depthMin": 10,
    "depthMax": 30,
    "marineLife": [],
    "averageRating": 0,
    "reviewCount": 0,
    "latitude": 3.8833,
    "longitude": 72.9333,
    "issues": null,
    "fixed": false,
    "valid": true
  },
  {
    "name": "Tulamben Drop Off",
    "lat": -8.2833,
    "lng": 115.5833,
    "country": "Indonesia",
    "region": "Bali",
    "description": "Beautiful wall dive near USAT Liberty. Good for beginners and intermediate divers.",
    "siteTypes": [
      "reef",
      "wall"
    ],
    "difficulty": 2,
    "depthMin": 5,
    "depthMax": 30,
    "marineLife": [],
    "averageRating": 0,
    "reviewCount": 0,
    "latitude": -8.2833,
    "longitude": 115.5833,
    "issues": null,
    "fixed": false,
    "valid": true
  },
  {
    "name": "Seraya Secrets",
    "lat": -8.2667,
    "lng": 115.5667,
    "country": "Indonesia",
    "region": "Bali",
    "description": "Macro photography paradise. Beautiful coral formations and diverse marine life.",
    "siteTypes": [
      "reef"
    ],
    "difficulty": 2,
    "depthMin": 5,
    "depthMax": 25,
    "marineLife": [],
    "averageRating": 0,
    "reviewCount": 0,
    "latitude": -8.2667,
    "longitude": 115.5667,
    "issues": null,
    "fixed": false,
    "valid": true
  },
  {
    "name": "Amed",
    "lat": -8.3667,
    "lng": 115.6167,
    "country": "Indonesia",
    "region": "Bali",
    "description": "Reef with beautiful coral formations. Good for beginners and intermediate divers.",
    "siteTypes": [
      "reef"
    ],
    "difficulty": 2,
    "depthMin": 5,
    "depthMax": 25,
    "marineLife": [],
    "averageRating": 0,
    "reviewCount": 0,
    "latitude": -8.3667,
    "longitude": 115.6167,
    "issues": null,
    "fixed": false,
    "valid": true
  },
  {
    "name": "Jemeluk Bay",
    "lat": -8.3833,
    "lng": 115.6333,
    "country": "Indonesia",
    "region": "Bali",
    "description": "Bay with beautiful coral gardens. Good visibility and diverse marine life.",
    "siteTypes": [
      "reef"
    ],
    "difficulty": 2,
    "depthMin": 5,
    "depthMax": 25,
    "marineLife": [],
    "averageRating": 0,
    "reviewCount": 0,
    "latitude": -8.3833,
    "longitude": 115.6333,
    "issues": null,
    "fixed": false,
    "valid": true
  },
  {
    "name": "Lipah Bay",
    "lat": -8.4,
    "lng": 115.65,
    "country": "Indonesia",
    "region": "Bali",
    "description": "Bay with beautiful coral formations. Good for beginners and intermediate divers.",
    "siteTypes": [
      "reef"
    ],
    "difficulty": 2,
    "depthMin": 5,
    "depthMax": 25,
    "marineLife": [],
    "averageRating": 0,
    "reviewCount": 0,
    "latitude": -8.4,
    "longitude": 115.65,
    "issues": null,
    "fixed": false,
    "valid": true
  },
  {
    "name": "Blue Lagoon",
    "lat": -8.4167,
    "lng": 115.6667,
    "country": "Indonesia",
    "region": "Bali",
    "description": "Shallow lagoon with beautiful coral gardens. Perfect for beginners and snorkelers.",
    "siteTypes": [
      "reef"
    ],
    "difficulty": 1,
    "depthMin": 3,
    "depthMax": 15,
    "marineLife": [],
    "averageRating": 0,
    "reviewCount": 0,
    "latitude": -8.4167,
    "longitude": 115.6667,
    "issues": null,
    "fixed": false,
    "valid": true
  },
  {
    "name": "Padangbai",
    "lat": -8.5333,
    "lng": 115.5167,
    "country": "Indonesia",
    "region": "Bali",
    "description": "Reef with beautiful coral formations. Good visibility and diverse marine life.",
    "siteTypes": [
      "reef"
    ],
    "difficulty": 2,
    "depthMin": 5,
    "depthMax": 25,
    "marineLife": [],
    "averageRating": 0,
    "reviewCount": 0,
    "latitude": -8.5333,
    "longitude": 115.5167,
    "issues": null,
    "fixed": false,
    "valid": true
  },
  {
    "name": "Gili Trawangan",
    "lat": -8.35,
    "lng": 116.0333,
    "country": "Indonesia",
    "region": "Lombok",
    "description": "Island with beautiful coral reefs. Good for beginners and intermediate divers.",
    "siteTypes": [
      "reef"
    ],
    "difficulty": 2,
    "depthMin": 5,
    "depthMax": 25,
    "marineLife": [],
    "averageRating": 0,
    "reviewCount": 0,
    "latitude": -8.35,
    "longitude": 116.0333,
    "issues": null,
    "fixed": false,
    "valid": true
  },
  {
    "name": "Gili Air",
    "lat": -8.3667,
    "lng": 116.0833,
    "country": "Indonesia",
    "region": "Lombok",
    "description": "Island with beautiful coral formations. Good visibility and diverse marine life.",
    "siteTypes": [
      "reef"
    ],
    "difficulty": 2,
    "depthMin": 5,
    "depthMax": 25,
    "marineLife": [],
    "averageRating": 0,
    "reviewCount": 0,
    "latitude": -8.3667,
    "longitude": 116.0833,
    "issues": null,
    "fixed": false,
    "valid": true
  },
  {
    "name": "Gili Meno",
    "lat": -8.35,
    "lng": 116.05,
    "country": "Indonesia",
    "region": "Lombok",
    "description": "Island with beautiful coral gardens. Good for beginners and intermediate divers.",
    "siteTypes": [
      "reef"
    ],
    "difficulty": 2,
    "depthMin": 5,
    "depthMax": 25,
    "marineLife": [],
    "averageRating": 0,
    "reviewCount": 0,
    "latitude": -8.35,
    "longitude": 116.05,
    "issues": null,
    "fixed": false,
    "valid": true
  },
  {
    "name": "Hairball",
    "lat": -8.55,
    "lng": 119.4667,
    "country": "Indonesia",
    "region": "Komodo",
    "description": "Drift dive with strong currents. Beautiful coral formations and diverse marine life.",
    "siteTypes": [
      "reef",
      "drift"
    ],
    "difficulty": 3,
    "depthMin": 10,
    "depthMax": 35,
    "marineLife": [],
    "averageRating": 0,
    "reviewCount": 0,
    "latitude": -8.55,
    "longitude": 119.4667,
    "issues": null,
    "fixed": false,
    "valid": true
  },
  {
    "name": "Cannibal Rock",
    "lat": -8.5333,
    "lng": 119.4833,
    "country": "Indonesia",
    "region": "Komodo",
    "description": "Reef with beautiful coral formations. Known for diverse marine life and strong currents.",
    "siteTypes": [
      "reef"
    ],
    "difficulty": 3,
    "depthMin": 10,
    "depthMax": 30,
    "marineLife": [],
    "averageRating": 0,
    "reviewCount": 0,
    "latitude": -8.5333,
    "longitude": 119.4833,
    "issues": null,
    "fixed": false,
    "valid": true
  },
  {
    "name": "Batu Bolong",
    "lat": -8.5167,
    "lng": 119.5,
    "country": "Indonesia",
    "region": "Komodo",
    "description": "Reef with beautiful coral formations. Advanced diving recommended due to strong currents.",
    "siteTypes": [
      "reef"
    ],
    "difficulty": 3,
    "depthMin": 10,
    "depthMax": 30,
    "marineLife": [],
    "averageRating": 0,
    "reviewCount": 0,
    "latitude": -8.5167,
    "longitude": 119.5,
    "issues": null,
    "fixed": false,
    "valid": true
  },
  {
    "name": "Manta Point Komodo",
    "lat": -8.5,
    "lng": 119.5167,
    "country": "Indonesia",
    "region": "Komodo",
    "description": "Manta ray cleaning station. Beautiful coral formations and diverse marine life.",
    "siteTypes": [
      "reef"
    ],
    "difficulty": 2,
    "depthMin": 5,
    "depthMax": 20,
    "marineLife": [],
    "averageRating": 0,
    "reviewCount": 0,
    "latitude": -8.5,
    "longitude": 119.5167,
    "issues": null,
    "fixed": false,
    "valid": true
  },
  {
    "name": "Tatawa Kecil",
    "lat": -8.4833,
    "lng": 119.5333,
    "country": "Indonesia",
    "region": "Komodo",
    "description": "Reef with beautiful coral formations. Good for beginners and intermediate divers.",
    "siteTypes": [
      "reef"
    ],
    "difficulty": 2,
    "depthMin": 5,
    "depthMax": 25,
    "marineLife": [],
    "averageRating": 0,
    "reviewCount": 0,
    "latitude": -8.4833,
    "longitude": 119.5333,
    "issues": null,
    "fixed": false,
    "valid": true
  },
  {
    "name": "Pink Beach",
    "lat": -8.4667,
    "lng": 119.55,
    "country": "Indonesia",
    "region": "Komodo",
    "description": "Reef with beautiful coral gardens. Good visibility and diverse marine life.",
    "siteTypes": [
      "reef"
    ],
    "difficulty": 2,
    "depthMin": 5,
    "depthMax": 25,
    "marineLife": [],
    "averageRating": 0,
    "reviewCount": 0,
    "latitude": -8.4667,
    "longitude": 119.55,
    "issues": null,
    "fixed": false,
    "valid": true
  },
  {
    "name": "Siaba Besar",
    "lat": -8.45,
    "lng": 119.5667,
    "country": "Indonesia",
    "region": "Komodo",
    "description": "Reef with beautiful coral formations. Good for beginners and intermediate divers.",
    "siteTypes": [
      "reef"
    ],
    "difficulty": 2,
    "depthMin": 5,
    "depthMax": 25,
    "marineLife": [],
    "averageRating": 0,
    "reviewCount": 0,
    "latitude": -8.45,
    "longitude": 119.5667,
    "issues": null,
    "fixed": false,
    "valid": true
  },
  {
    "name": "Castle Rock",
    "lat": -8.4333,
    "lng": 119.5833,
    "country": "Indonesia",
    "region": "Komodo",
    "description": "Reef with beautiful formations. Advanced diving recommended due to strong currents.",
    "siteTypes": [
      "reef"
    ],
    "difficulty": 3,
    "depthMin": 10,
    "depthMax": 30,
    "marineLife": [],
    "averageRating": 0,
    "reviewCount": 0,
    "latitude": -8.4333,
    "longitude": 119.5833,
    "issues": null,
    "fixed": false,
    "valid": true
  },
  {
    "name": "The Passage",
    "lat": -8.4167,
    "lng": 119.6,
    "country": "Indonesia",
    "region": "Komodo",
    "description": "Drift dive through narrow passage. Beautiful coral formations and diverse marine life.",
    "siteTypes": [
      "reef",
      "drift"
    ],
    "difficulty": 3,
    "depthMin": 10,
    "depthMax": 30,
    "marineLife": [],
    "averageRating": 0,
    "reviewCount": 0,
    "latitude": -8.4167,
    "longitude": 119.6,
    "issues": null,
    "fixed": false,
    "valid": true
  },
  {
    "name": "Crystal Rock",
    "lat": -8.4,
    "lng": 119.6167,
    "country": "Indonesia",
    "region": "Komodo",
    "description": "Reef with beautiful coral formations. Known for diverse marine life and strong currents.",
    "siteTypes": [
      "reef"
    ],
    "difficulty": 3,
    "depthMin": 10,
    "depthMax": 30,
    "marineLife": [],
    "averageRating": 0,
    "reviewCount": 0,
    "latitude": -8.4,
    "longitude": 119.6167,
    "issues": null,
    "fixed": false,
    "valid": true
  },
  {
    "name": "Yellow Wall of Texas",
    "lat": -8.3833,
    "lng": 119.6333,
    "country": "Indonesia",
    "region": "Komodo",
    "description": "Wall dive with beautiful coral formations. Advanced diving recommended.",
    "siteTypes": [
      "reef",
      "wall"
    ],
    "difficulty": 3,
    "depthMin": 10,
    "depthMax": 35,
    "marineLife": [],
    "averageRating": 0,
    "reviewCount": 0,
    "latitude": -8.3833,
    "longitude": 119.6333,
    "issues": null,
    "fixed": false,
    "valid": true
  },
  {
    "name": "Rinca Island",
    "lat": -8.6333,
    "lng": 119.7,
    "country": "Indonesia",
    "region": "Komodo",
    "description": "Island with beautiful coral reefs. Good for beginners and intermediate divers.",
    "siteTypes": [
      "reef"
    ],
    "difficulty": 2,
    "depthMin": 5,
    "depthMax": 25,
    "marineLife": [],
    "averageRating": 0,
    "reviewCount": 0,
    "latitude": -8.6333,
    "longitude": 119.7,
    "issues": null,
    "fixed": false,
    "valid": true
  },
  {
    "name": "Puerto Galera",
    "lat": 13.5167,
    "lng": 120.95,
    "country": "Philippines",
    "region": "Mindoro",
    "description": "Reef with beautiful coral formations. Good for beginners and intermediate divers.",
    "siteTypes": [
      "reef"
    ],
    "difficulty": 2,
    "depthMin": 5,
    "depthMax": 25,
    "marineLife": [],
    "averageRating": 0,
    "reviewCount": 0,
    "latitude": 13.5167,
    "longitude": 120.95,
    "issues": null,
    "fixed": false,
    "valid": true
  },
  {
    "name": "Sabang",
    "lat": 13.5,
    "lng": 120.9333,
    "country": "Philippines",
    "region": "Mindoro",
    "description": "Reef with beautiful coral gardens. Good visibility and diverse marine life.",
    "siteTypes": [
      "reef"
    ],
    "difficulty": 2,
    "depthMin": 5,
    "depthMax": 25,
    "marineLife": [],
    "averageRating": 0,
    "reviewCount": 0,
    "latitude": 13.5,
    "longitude": 120.9333,
    "issues": null,
    "fixed": false,
    "valid": true
  },
  {
    "name": "Canyons",
    "lat": 13.4833,
    "lng": 120.9167,
    "country": "Philippines",
    "region": "Mindoro",
    "description": "Reef with beautiful canyon formations. Advanced diving recommended.",
    "siteTypes": [
      "reef"
    ],
    "difficulty": 3,
    "depthMin": 10,
    "depthMax": 30,
    "marineLife": [],
    "averageRating": 0,
    "reviewCount": 0,
    "latitude": 13.4833,
    "longitude": 120.9167,
    "issues": null,
    "fixed": false,
    "valid": true
  },
  {
    "name": "Monkey Beach",
    "lat": 13.4667,
    "lng": 120.9,
    "country": "Philippines",
    "region": "Mindoro",
    "description": "Reef with beautiful coral formations. Good for beginners and intermediate divers.",
    "siteTypes": [
      "reef"
    ],
    "difficulty": 2,
    "depthMin": 5,
    "depthMax": 25,
    "marineLife": [],
    "averageRating": 0,
    "reviewCount": 0,
    "latitude": 13.4667,
    "longitude": 120.9,
    "issues": null,
    "fixed": false,
    "valid": true
  },
  {
    "name": "Sinandigan Wall",
    "lat": 13.45,
    "lng": 120.8833,
    "country": "Philippines",
    "region": "Mindoro",
    "description": "Wall dive with beautiful coral formations. Advanced diving recommended.",
    "siteTypes": [
      "reef",
      "wall"
    ],
    "difficulty": 3,
    "depthMin": 10,
    "depthMax": 30,
    "marineLife": [],
    "averageRating": 0,
    "reviewCount": 0,
    "latitude": 13.45,
    "longitude": 120.8833,
    "issues": null,
    "fixed": false,
    "valid": true
  },
  {
    "name": "Verde Island",
    "lat": 13.5167,
    "lng": 120.85,
    "country": "Philippines",
    "region": "Batangas",
    "description": "Island with beautiful coral reefs. Known for strong currents and diverse marine life.",
    "siteTypes": [
      "reef"
    ],
    "difficulty": 3,
    "depthMin": 10,
    "depthMax": 30,
    "marineLife": [],
    "averageRating": 0,
    "reviewCount": 0,
    "latitude": 13.5167,
    "longitude": 120.85,
    "issues": null,
    "fixed": false,
    "valid": true
  },
  {
    "name": "Isla Verde",
    "lat": 13.5333,
    "lng": 120.8667,
    "country": "Philippines",
    "region": "Batangas",
    "description": "Reef with beautiful coral formations. Advanced diving recommended.",
    "siteTypes": [
      "reef"
    ],
    "difficulty": 3,
    "depthMin": 10,
    "depthMax": 30,
    "marineLife": [],
    "averageRating": 0,
    "reviewCount": 0,
    "latitude": 13.5333,
    "longitude": 120.8667,
    "issues": null,
    "fixed": false,
    "valid": true
  },
  {
    "name": "Sombrero Island",
    "lat": 13.55,
    "lng": 120.8833,
    "country": "Philippines",
    "region": "Batangas",
    "description": "Island with beautiful coral gardens. Good visibility and diverse marine life.",
    "siteTypes": [
      "reef"
    ],
    "difficulty": 2,
    "depthMin": 5,
    "depthMax": 25,
    "marineLife": [],
    "averageRating": 0,
    "reviewCount": 0,
    "latitude": 13.55,
    "longitude": 120.8833,
    "issues": null,
    "fixed": false,
    "valid": true
  },
  {
    "name": "Apo Island",
    "lat": 9.0833,
    "lng": 123.2833,
    "country": "Philippines",
    "region": "Negros",
    "description": "Island with beautiful coral reefs. Good for beginners and intermediate divers.",
    "siteTypes": [
      "reef"
    ],
    "difficulty": 2,
    "depthMin": 5,
    "depthMax": 25,
    "marineLife": [],
    "averageRating": 0,
    "reviewCount": 0,
    "latitude": 9.0833,
    "longitude": 123.2833,
    "issues": null,
    "fixed": false,
    "valid": true
  },
  {
    "name": "Balicasag Island",
    "lat": 9.5167,
    "lng": 123.6833,
    "country": "Philippines",
    "region": "Bohol",
    "description": "Island with beautiful coral formations. Good visibility and diverse marine life.",
    "siteTypes": [
      "reef"
    ],
    "difficulty": 2,
    "depthMin": 5,
    "depthMax": 25,
    "marineLife": [],
    "averageRating": 0,
    "reviewCount": 0,
    "latitude": 9.5167,
    "longitude": 123.6833,
    "issues": null,
    "fixed": false,
    "valid": true
  },
  {
    "name": "Pamilacan Island",
    "lat": 9.4833,
    "lng": 123.9333,
    "country": "Philippines",
    "region": "Bohol",
    "description": "Island with beautiful coral gardens. Good for beginners and intermediate divers.",
    "siteTypes": [
      "reef"
    ],
    "difficulty": 2,
    "depthMin": 5,
    "depthMax": 25,
    "marineLife": [],
    "averageRating": 0,
    "reviewCount": 0,
    "latitude": 9.4833,
    "longitude": 123.9333,
    "issues": null,
    "fixed": false,
    "valid": true
  },
  {
    "name": "Cabilao Island",
    "lat": 9.8667,
    "lng": 123.7833,
    "country": "Philippines",
    "region": "Bohol",
    "description": "Island with beautiful coral reefs. Good visibility and diverse marine life.",
    "siteTypes": [
      "reef"
    ],
    "difficulty": 2,
    "depthMin": 5,
    "depthMax": 25,
    "marineLife": [],
    "averageRating": 0,
    "reviewCount": 0,
    "latitude": 9.8667,
    "longitude": 123.7833,
    "issues": null,
    "fixed": false,
    "valid": true
  },
  {
    "name": "Dauin",
    "lat": 9.1833,
    "lng": 123.2667,
    "country": "Philippines",
    "region": "Negros",
    "description": "Macro photography paradise. Beautiful coral formations and diverse marine life.",
    "siteTypes": [
      "reef"
    ],
    "difficulty": 2,
    "depthMin": 5,
    "depthMax": 25,
    "marineLife": [],
    "averageRating": 0,
    "reviewCount": 0,
    "latitude": 9.1833,
    "longitude": 123.2667,
    "issues": null,
    "fixed": false,
    "valid": true
  },
  {
    "name": "Moalboal",
    "lat": 9.9333,
    "lng": 123.4,
    "country": "Philippines",
    "region": "Cebu",
    "description": "Reef with beautiful coral formations. Known for sardine run and diverse marine life.",
    "siteTypes": [
      "reef"
    ],
    "difficulty": 2,
    "depthMin": 5,
    "depthMax": 25,
    "marineLife": [],
    "averageRating": 0,
    "reviewCount": 0,
    "latitude": 9.9333,
    "longitude": 123.4,
    "issues": null,
    "fixed": false,
    "valid": true
  },
  {
    "name": "Pescador Island",
    "lat": 9.9167,
    "lng": 123.3833,
    "country": "Philippines",
    "region": "Cebu",
    "description": "Island with beautiful coral reefs. Good for beginners and intermediate divers.",
    "siteTypes": [
      "reef"
    ],
    "difficulty": 2,
    "depthMin": 5,
    "depthMax": 25,
    "marineLife": [],
    "averageRating": 0,
    "reviewCount": 0,
    "latitude": 9.9167,
    "longitude": 123.3833,
    "issues": null,
    "fixed": false,
    "valid": true
  },
  {
    "name": "Sumilon Island",
    "lat": 9.4167,
    "lng": 123.3333,
    "country": "Philippines",
    "region": "Cebu",
    "description": "Island with beautiful coral gardens. Good visibility and diverse marine life.",
    "siteTypes": [
      "reef"
    ],
    "difficulty": 2,
    "depthMin": 5,
    "depthMax": 25,
    "marineLife": [],
    "averageRating": 0,
    "reviewCount": 0,
    "latitude": 9.4167,
    "longitude": 123.3333,
    "issues": null,
    "fixed": false,
    "valid": true
  },
  {
    "name": "Alona Beach",
    "lat": 9.5167,
    "lng": 123.75,
    "country": "Philippines",
    "region": "Bohol",
    "description": "Beach dive with beautiful coral formations. Good for beginners and intermediate divers.",
    "siteTypes": [
      "reef"
    ],
    "difficulty": 2,
    "depthMin": 5,
    "depthMax": 25,
    "marineLife": [],
    "averageRating": 0,
    "reviewCount": 0,
    "latitude": 9.5167,
    "longitude": 123.75,
    "issues": null,
    "fixed": false,
    "valid": true
  },
  {
    "name": "Kalanggaman Island",
    "lat": 11.1167,
    "lng": 124.1667,
    "country": "Philippines",
    "region": "Leyte",
    "description": "Island with beautiful coral reefs. Good visibility and diverse marine life.",
    "siteTypes": [
      "reef"
    ],
    "difficulty": 2,
    "depthMin": 5,
    "depthMax": 25,
    "marineLife": [],
    "averageRating": 0,
    "reviewCount": 0,
    "latitude": 11.1167,
    "longitude": 124.1667,
    "issues": null,
    "fixed": false,
    "valid": true
  },
  {
    "name": "Siquijor",
    "lat": 9.1833,
    "lng": 123.5833,
    "country": "Philippines",
    "region": "Siquijor",
    "description": "Island with beautiful coral formations. Good for beginners and intermediate divers.",
    "siteTypes": [
      "reef"
    ],
    "difficulty": 2,
    "depthMin": 5,
    "depthMax": 25,
    "marineLife": [],
    "averageRating": 0,
    "reviewCount": 0,
    "latitude": 9.1833,
    "longitude": 123.5833,
    "issues": null,
    "fixed": false,
    "valid": true
  },
  {
    "name": "Hin Muang",
    "lat": 7.4,
    "lng": 97.65,
    "country": "Thailand",
    "region": "Koh Lanta",
    "description": "Purple rock with pelagics. Known for manta rays and whale sharks.",
    "siteTypes": [
      "reef"
    ],
    "difficulty": 3,
    "depthMin": 10,
    "depthMax": 40,
    "marineLife": [],
    "averageRating": 0,
    "reviewCount": 0,
    "latitude": 7.4,
    "longitude": 97.65,
    "issues": null,
    "fixed": false,
    "valid": true
  },
  {
    "name": "Hin Bida",
    "lat": 7.3833,
    "lng": 97.6333,
    "country": "Thailand",
    "region": "Koh Lanta",
    "description": "Reef with beautiful coral formations. Known for diverse marine life.",
    "siteTypes": [
      "reef"
    ],
    "difficulty": 3,
    "depthMin": 10,
    "depthMax": 35,
    "marineLife": [],
    "averageRating": 0,
    "reviewCount": 0,
    "latitude": 7.3833,
    "longitude": 97.6333,
    "issues": null,
    "fixed": false,
    "valid": true
  },
  {
    "name": "Koh Bon",
    "lat": 8.5833,
    "lng": 97.7333,
    "country": "Thailand",
    "region": "Similan Islands",
    "description": "Island with beautiful coral reefs. Known for manta rays and diverse marine life.",
    "siteTypes": [
      "reef"
    ],
    "difficulty": 3,
    "depthMin": 10,
    "depthMax": 30,
    "marineLife": [],
    "averageRating": 0,
    "reviewCount": 0,
    "latitude": 8.5833,
    "longitude": 97.7333,
    "issues": null,
    "fixed": false,
    "valid": true
  },
  {
    "name": "Koh Tachai",
    "lat": 8.9167,
    "lng": 97.8167,
    "country": "Thailand",
    "region": "Similan Islands",
    "description": "Island with beautiful coral formations. Known for whale sharks and diverse marine life.",
    "siteTypes": [
      "reef"
    ],
    "difficulty": 3,
    "depthMin": 10,
    "depthMax": 30,
    "marineLife": [],
    "averageRating": 0,
    "reviewCount": 0,
    "latitude": 8.9167,
    "longitude": 97.8167,
    "issues": null,
    "fixed": false,
    "valid": true
  },
  {
    "name": "East of Eden",
    "lat": 8.5,
    "lng": 97.7,
    "country": "Thailand",
    "region": "Similan Islands",
    "description": "Reef with beautiful coral gardens. Good for beginners and intermediate divers.",
    "siteTypes": [
      "reef"
    ],
    "difficulty": 2,
    "depthMin": 5,
    "depthMax": 25,
    "marineLife": [],
    "averageRating": 0,
    "reviewCount": 0,
    "latitude": 8.5,
    "longitude": 97.7,
    "issues": null,
    "fixed": false,
    "valid": true
  },
  {
    "name": "Elephant Head Rock",
    "lat": 8.5167,
    "lng": 97.7167,
    "country": "Thailand",
    "region": "Similan Islands",
    "description": "Rock formation with beautiful coral. Advanced diving recommended.",
    "siteTypes": [
      "reef"
    ],
    "difficulty": 3,
    "depthMin": 10,
    "depthMax": 30,
    "marineLife": [],
    "averageRating": 0,
    "reviewCount": 0,
    "latitude": 8.5167,
    "longitude": 97.7167,
    "issues": null,
    "fixed": false,
    "valid": true
  },
  {
    "name": "Breakfast Bend",
    "lat": 8.5333,
    "lng": 97.7333,
    "country": "Thailand",
    "region": "Similan Islands",
    "description": "Reef with beautiful coral formations. Good for beginners and intermediate divers.",
    "siteTypes": [
      "reef"
    ],
    "difficulty": 2,
    "depthMin": 5,
    "depthMax": 25,
    "marineLife": [],
    "averageRating": 0,
    "reviewCount": 0,
    "latitude": 8.5333,
    "longitude": 97.7333,
    "issues": null,
    "fixed": false,
    "valid": true
  },
  {
    "name": "Anita's Reef",
    "lat": 8.55,
    "lng": 97.75,
    "country": "Thailand",
    "region": "Similan Islands",
    "description": "Reef with beautiful coral gardens. Good visibility and diverse marine life.",
    "siteTypes": [
      "reef"
    ],
    "difficulty": 2,
    "depthMin": 5,
    "depthMax": 25,
    "marineLife": [],
    "averageRating": 0,
    "reviewCount": 0,
    "latitude": 8.55,
    "longitude": 97.75,
    "issues": null,
    "fixed": false,
    "valid": true
  },
  {
    "name": "Beacon Point",
    "lat": 8.5667,
    "lng": 97.7667,
    "country": "Thailand",
    "region": "Similan Islands",
    "description": "Reef with beautiful coral formations. Good for beginners and intermediate divers.",
    "siteTypes": [
      "reef"
    ],
    "difficulty": 2,
    "depthMin": 5,
    "depthMax": 25,
    "marineLife": [],
    "averageRating": 0,
    "reviewCount": 0,
    "latitude": 8.5667,
    "longitude": 97.7667,
    "issues": null,
    "fixed": false,
    "valid": true
  },
  {
    "name": "Deep Six",
    "lat": 8.5833,
    "lng": 97.7833,
    "country": "Thailand",
    "region": "Similan Islands",
    "description": "Deep reef with beautiful formations. Advanced diving recommended.",
    "siteTypes": [
      "reef"
    ],
    "difficulty": 3,
    "depthMin": 10,
    "depthMax": 30,
    "marineLife": [],
    "averageRating": 0,
    "reviewCount": 0,
    "latitude": 8.5833,
    "longitude": 97.7833,
    "issues": null,
    "fixed": false,
    "valid": true
  },
  {
    "name": "Koh Haa",
    "lat": 7.5833,
    "lng": 99.05,
    "country": "Thailand",
    "region": "Koh Lanta",
    "description": "Group of islands with beautiful coral reefs. Good for beginners and intermediate divers.",
    "siteTypes": [
      "reef"
    ],
    "difficulty": 2,
    "depthMin": 5,
    "depthMax": 25,
    "marineLife": [],
    "averageRating": 0,
    "reviewCount": 0,
    "latitude": 7.5833,
    "longitude": 99.05,
    "issues": null,
    "fixed": false,
    "valid": true
  },
  {
    "name": "Hin Yung",
    "lat": 7.5667,
    "lng": 99.0333,
    "country": "Thailand",
    "region": "Koh Lanta",
    "description": "Reef with beautiful coral formations. Good visibility and diverse marine life.",
    "siteTypes": [
      "reef"
    ],
    "difficulty": 2,
    "depthMin": 5,
    "depthMax": 25,
    "marineLife": [],
    "averageRating": 0,
    "reviewCount": 0,
    "latitude": 7.5667,
    "longitude": 99.0333,
    "issues": null,
    "fixed": false,
    "valid": true
  },
  {
    "name": "Koh Phi Phi",
    "lat": 7.7333,
    "lng": 98.7833,
    "country": "Thailand",
    "region": "Koh Phi Phi",
    "description": "Island with beautiful coral reefs. Good for beginners and intermediate divers.",
    "siteTypes": [
      "reef"
    ],
    "difficulty": 2,
    "depthMin": 5,
    "depthMax": 25,
    "marineLife": [],
    "averageRating": 0,
    "reviewCount": 0,
    "latitude": 7.7333,
    "longitude": 98.7833,
    "issues": null,
    "fixed": false,
    "valid": true
  },
  {
    "name": "Bida Nok",
    "lat": 7.7167,
    "lng": 98.7667,
    "country": "Thailand",
    "region": "Koh Phi Phi",
    "description": "Reef with beautiful coral formations. Good visibility and diverse marine life.",
    "siteTypes": [
      "reef"
    ],
    "difficulty": 2,
    "depthMin": 5,
    "depthMax": 25,
    "marineLife": [],
    "averageRating": 0,
    "reviewCount": 0,
    "latitude": 7.7167,
    "longitude": 98.7667,
    "issues": null,
    "fixed": false,
    "valid": true
  },
  {
    "name": "Bida Nai",
    "lat": 7.7,
    "lng": 98.75,
    "country": "Thailand",
    "region": "Koh Phi Phi",
    "description": "Reef with beautiful coral gardens. Good for beginners and intermediate divers.",
    "siteTypes": [
      "reef"
    ],
    "difficulty": 2,
    "depthMin": 5,
    "depthMax": 25,
    "marineLife": [],
    "averageRating": 0,
    "reviewCount": 0,
    "latitude": 7.7,
    "longitude": 98.75,
    "issues": null,
    "fixed": false,
    "valid": true
  },
  {
    "name": "Shark Point",
    "lat": 7.6833,
    "lng": 98.7333,
    "country": "Thailand",
    "region": "Koh Phi Phi",
    "description": "Reef known for leopard sharks. Beautiful coral formations and diverse marine life.",
    "siteTypes": [
      "reef"
    ],
    "difficulty": 2,
    "depthMin": 5,
    "depthMax": 25,
    "marineLife": [],
    "averageRating": 0,
    "reviewCount": 0,
    "latitude": 7.6833,
    "longitude": 98.7333,
    "issues": null,
    "fixed": false,
    "valid": true
  },
  {
    "name": "Koh Dok Mai",
    "lat": 7.6667,
    "lng": 98.7167,
    "country": "Thailand",
    "region": "Koh Phi Phi",
    "description": "Island with beautiful coral reefs. Good visibility and diverse marine life.",
    "siteTypes": [
      "reef"
    ],
    "difficulty": 2,
    "depthMin": 5,
    "depthMax": 25,
    "marineLife": [],
    "averageRating": 0,
    "reviewCount": 0,
    "latitude": 7.6667,
    "longitude": 98.7167,
    "issues": null,
    "fixed": false,
    "valid": true
  },
  {
    "name": "King Cruiser Wreck",
    "lat": 7.65,
    "lng": 98.7,
    "country": "Thailand",
    "region": "Koh Phi Phi",
    "description": "Wreck of passenger ferry. Good for wreck diving enthusiasts.",
    "siteTypes": [
      "wreck"
    ],
    "difficulty": 2,
    "depthMin": 15,
    "depthMax": 30,
    "marineLife": [],
    "averageRating": 0,
    "reviewCount": 0,
    "latitude": 7.65,
    "longitude": 98.7,
    "issues": null,
    "fixed": false,
    "valid": true
  },
  {
    "name": "Anemone Reef",
    "lat": 7.6333,
    "lng": 98.6833,
    "country": "Thailand",
    "region": "Koh Phi Phi",
    "description": "Reef covered in anemones. Beautiful coral formations and diverse marine life.",
    "siteTypes": [
      "reef"
    ],
    "difficulty": 2,
    "depthMin": 5,
    "depthMax": 25,
    "marineLife": [],
    "averageRating": 0,
    "reviewCount": 0,
    "latitude": 7.6333,
    "longitude": 98.6833,
    "issues": null,
    "fixed": false,
    "valid": true
  },
  {
    "name": "Koh Wai",
    "lat": 12.0333,
    "lng": 102.4167,
    "country": "Thailand",
    "region": "Koh Chang",
    "description": "Island with beautiful coral reefs. Good for beginners and intermediate divers.",
    "siteTypes": [
      "reef"
    ],
    "difficulty": 2,
    "depthMin": 5,
    "depthMax": 25,
    "marineLife": [],
    "averageRating": 0,
    "reviewCount": 0,
    "latitude": 12.0333,
    "longitude": 102.4167,
    "issues": null,
    "fixed": false,
    "valid": true
  },
  {
    "name": "Pom Pom Island",
    "lat": 4.3167,
    "lng": 118.7,
    "country": "Malaysia",
    "region": "Sabah",
    "description": "Island with beautiful coral reefs. Good for beginners and intermediate divers.",
    "siteTypes": [
      "reef"
    ],
    "difficulty": 2,
    "depthMin": 5,
    "depthMax": 25,
    "marineLife": [],
    "averageRating": 0,
    "reviewCount": 0,
    "latitude": 4.3167,
    "longitude": 118.7,
    "issues": null,
    "fixed": false,
    "valid": true
  },
  {
    "name": "Sibuan Island",
    "lat": 4.3333,
    "lng": 118.7167,
    "country": "Malaysia",
    "region": "Sabah",
    "description": "Island with beautiful coral gardens. Good visibility and diverse marine life.",
    "siteTypes": [
      "reef"
    ],
    "difficulty": 2,
    "depthMin": 5,
    "depthMax": 25,
    "marineLife": [],
    "averageRating": 0,
    "reviewCount": 0,
    "latitude": 4.3333,
    "longitude": 118.7167,
    "issues": null,
    "fixed": false,
    "valid": true
  },
  {
    "name": "Bohey Dulang",
    "lat": 4.35,
    "lng": 118.7333,
    "country": "Malaysia",
    "region": "Sabah",
    "description": "Island with beautiful coral formations. Good for beginners and intermediate divers.",
    "siteTypes": [
      "reef"
    ],
    "difficulty": 2,
    "depthMin": 5,
    "depthMax": 25,
    "marineLife": [],
    "averageRating": 0,
    "reviewCount": 0,
    "latitude": 4.35,
    "longitude": 118.7333,
    "issues": null,
    "fixed": false,
    "valid": true
  },
  {
    "name": "Bodgaya Island",
    "lat": 4.3667,
    "lng": 118.75,
    "country": "Malaysia",
    "region": "Sabah",
    "description": "Island with beautiful coral reefs. Good visibility and diverse marine life.",
    "siteTypes": [
      "reef"
    ],
    "difficulty": 2,
    "depthMin": 5,
    "depthMax": 25,
    "marineLife": [],
    "averageRating": 0,
    "reviewCount": 0,
    "latitude": 4.3667,
    "longitude": 118.75,
    "issues": null,
    "fixed": false,
    "valid": true
  },
  {
    "name": "Maiga Island",
    "lat": 4.3833,
    "lng": 118.7667,
    "country": "Malaysia",
    "region": "Sabah",
    "description": "Island with beautiful coral gardens. Good for beginners and intermediate divers.",
    "siteTypes": [
      "reef"
    ],
    "difficulty": 2,
    "depthMin": 5,
    "depthMax": 25,
    "marineLife": [],
    "averageRating": 0,
    "reviewCount": 0,
    "latitude": 4.3833,
    "longitude": 118.7667,
    "issues": null,
    "fixed": false,
    "valid": true
  },
  {
    "name": "Tioman Island",
    "lat": 2.8167,
    "lng": 104.1667,
    "country": "Malaysia",
    "region": "Tioman",
    "description": "Island with beautiful coral reefs. Good for beginners and intermediate divers.",
    "siteTypes": [
      "reef"
    ],
    "difficulty": 2,
    "depthMin": 5,
    "depthMax": 25,
    "marineLife": [],
    "averageRating": 0,
    "reviewCount": 0,
    "latitude": 2.8167,
    "longitude": 104.1667,
    "issues": null,
    "fixed": false,
    "valid": true
  },
  {
    "name": "Renggis Island",
    "lat": 2.8,
    "lng": 104.15,
    "country": "Malaysia",
    "region": "Tioman",
    "description": "Reef with beautiful coral formations. Good visibility and diverse marine life.",
    "siteTypes": [
      "reef"
    ],
    "difficulty": 2,
    "depthMin": 5,
    "depthMax": 25,
    "marineLife": [],
    "averageRating": 0,
    "reviewCount": 0,
    "latitude": 2.8,
    "longitude": 104.15,
    "issues": null,
    "fixed": false,
    "valid": true
  },
  {
    "name": "Soyak Island",
    "lat": 2.7833,
    "lng": 104.1333,
    "country": "Malaysia",
    "region": "Tioman",
    "description": "Reef with beautiful coral gardens. Good for beginners and intermediate divers.",
    "siteTypes": [
      "reef"
    ],
    "difficulty": 2,
    "depthMin": 5,
    "depthMax": 25,
    "marineLife": [],
    "averageRating": 0,
    "reviewCount": 0,
    "latitude": 2.7833,
    "longitude": 104.1333,
    "issues": null,
    "fixed": false,
    "valid": true
  },
  {
    "name": "Tiger Reef",
    "lat": 2.7667,
    "lng": 104.1167,
    "country": "Malaysia",
    "region": "Tioman",
    "description": "Reef with beautiful coral formations. Known for diverse marine life.",
    "siteTypes": [
      "reef"
    ],
    "difficulty": 2,
    "depthMin": 5,
    "depthMax": 25,
    "marineLife": [],
    "averageRating": 0,
    "reviewCount": 0,
    "latitude": 2.7667,
    "longitude": 104.1167,
    "issues": null,
    "fixed": false,
    "valid": true
  },
  {
    "name": "Labas Island",
    "lat": 2.75,
    "lng": 104.1,
    "country": "Malaysia",
    "region": "Tioman",
    "description": "Island with beautiful coral reefs. Good visibility and diverse marine life.",
    "siteTypes": [
      "reef"
    ],
    "difficulty": 2,
    "depthMin": 5,
    "depthMax": 25,
    "marineLife": [],
    "averageRating": 0,
    "reviewCount": 0,
    "latitude": 2.75,
    "longitude": 104.1,
    "issues": null,
    "fixed": false,
    "valid": true
  },
  {
    "name": "Malang Rock",
    "lat": 2.7333,
    "lng": 104.0833,
    "country": "Malaysia",
    "region": "Tioman",
    "description": "Reef with beautiful coral formations. Good for beginners and intermediate divers.",
    "siteTypes": [
      "reef"
    ],
    "difficulty": 2,
    "depthMin": 5,
    "depthMax": 25,
    "marineLife": [],
    "averageRating": 0,
    "reviewCount": 0,
    "latitude": 2.7333,
    "longitude": 104.0833,
    "issues": null,
    "fixed": false,
    "valid": true
  },
  {
    "name": "Chebeh Island",
    "lat": 2.7167,
    "lng": 104.0667,
    "country": "Malaysia",
    "region": "Tioman",
    "description": "Island with beautiful coral gardens. Good visibility and diverse marine life.",
    "siteTypes": [
      "reef"
    ],
    "difficulty": 2,
    "depthMin": 5,
    "depthMax": 25,
    "marineLife": [],
    "averageRating": 0,
    "reviewCount": 0,
    "latitude": 2.7167,
    "longitude": 104.0667,
    "issues": null,
    "fixed": false,
    "valid": true
  },
  {
    "name": "Tulai Island",
    "lat": 2.7,
    "lng": 104.05,
    "country": "Malaysia",
    "region": "Tioman",
    "description": "Island with beautiful coral reefs. Good for beginners and intermediate divers.",
    "siteTypes": [
      "reef"
    ],
    "difficulty": 2,
    "depthMin": 5,
    "depthMax": 25,
    "marineLife": [],
    "averageRating": 0,
    "reviewCount": 0,
    "latitude": 2.7,
    "longitude": 104.05,
    "issues": null,
    "fixed": false,
    "valid": true
  },
  {
    "name": "Perhentian Islands",
    "lat": 5.9167,
    "lng": 102.7333,
    "country": "Malaysia",
    "region": "Perhentian",
    "description": "Islands with beautiful coral reefs. Good for beginners and intermediate divers.",
    "siteTypes": [
      "reef"
    ],
    "difficulty": 2,
    "depthMin": 5,
    "depthMax": 25,
    "marineLife": [],
    "averageRating": 0,
    "reviewCount": 0,
    "latitude": 5.9167,
    "longitude": 102.7333,
    "issues": null,
    "fixed": false,
    "valid": true
  },
  {
    "name": "Redang Island",
    "lat": 5.7833,
    "lng": 103,
    "country": "Malaysia",
    "region": "Redang",
    "description": "Island with beautiful coral formations. Good visibility and diverse marine life.",
    "siteTypes": [
      "reef"
    ],
    "difficulty": 2,
    "depthMin": 5,
    "depthMax": 25,
    "marineLife": [],
    "averageRating": 0,
    "reviewCount": 0,
    "latitude": 5.7833,
    "longitude": 103,
    "issues": null,
    "fixed": false,
    "valid": true
  },
  {
    "name": "Langkawi",
    "lat": 6.35,
    "lng": 99.8167,
    "country": "Malaysia",
    "region": "Langkawi",
    "description": "Island with beautiful coral reefs. Good for beginners and intermediate divers.",
    "siteTypes": [
      "reef"
    ],
    "difficulty": 2,
    "depthMin": 5,
    "depthMax": 25,
    "marineLife": [],
    "averageRating": 0,
    "reviewCount": 0,
    "latitude": 6.35,
    "longitude": 99.8167,
    "issues": null,
    "fixed": false,
    "valid": true
  },
  {
    "name": "Payar Island",
    "lat": 6.05,
    "lng": 100.0333,
    "country": "Malaysia",
    "region": "Langkawi",
    "description": "Island with beautiful coral gardens. Good visibility and diverse marine life.",
    "siteTypes": [
      "reef"
    ],
    "difficulty": 2,
    "depthMin": 5,
    "depthMax": 25,
    "marineLife": [],
    "averageRating": 0,
    "reviewCount": 0,
    "latitude": 6.05,
    "longitude": 100.0333,
    "issues": null,
    "fixed": false,
    "valid": true
  },
  {
    "name": "Coral Garden",
    "lat": 6.0333,
    "lng": 100.0167,
    "country": "Malaysia",
    "region": "Langkawi",
    "description": "Reef with beautiful coral formations. Good for beginners and intermediate divers.",
    "siteTypes": [
      "reef"
    ],
    "difficulty": 2,
    "depthMin": 5,
    "depthMax": 25,
    "marineLife": [],
    "averageRating": 0,
    "reviewCount": 0,
    "latitude": 6.0333,
    "longitude": 100.0167,
    "issues": null,
    "fixed": false,
    "valid": true
  },
  {
    "name": "Anemone Garden",
    "lat": 6.0167,
    "lng": 100,
    "country": "Malaysia",
    "region": "Langkawi",
    "description": "Reef covered in anemones. Beautiful coral formations and diverse marine life.",
    "siteTypes": [
      "reef"
    ],
    "difficulty": 2,
    "depthMin": 5,
    "depthMax": 25,
    "marineLife": [],
    "averageRating": 0,
    "reviewCount": 0,
    "latitude": 6.0167,
    "longitude": 100,
    "issues": null,
    "fixed": false,
    "valid": true
  },
  {
    "name": "Teluk Kampi",
    "lat": 6,
    "lng": 99.9833,
    "country": "Malaysia",
    "region": "Langkawi",
    "description": "Bay with beautiful coral reefs. Good visibility and diverse marine life.",
    "siteTypes": [
      "reef"
    ],
    "difficulty": 2,
    "depthMin": 5,
    "depthMax": 25,
    "marineLife": [],
    "averageRating": 0,
    "reviewCount": 0,
    "latitude": 6,
    "longitude": 99.9833,
    "issues": null,
    "fixed": false,
    "valid": true
  },
  {
    "name": "Great Barrier Reef",
    "lat": -16.2833,
    "lng": 145.8333,
    "country": "Australia",
    "region": "Queensland",
    "description": "World's largest coral reef system. UNESCO World Heritage Site with pristine coral reefs.",
    "siteTypes": [
      "reef"
    ],
    "difficulty": 2,
    "depthMin": 5,
    "depthMax": 30,
    "marineLife": [],
    "averageRating": 0,
    "reviewCount": 0,
    "latitude": -16.2833,
    "longitude": 145.8333,
    "issues": null,
    "fixed": false,
    "valid": true
  },
  {
    "name": "Flinders Reef",
    "lat": -27.3333,
    "lng": 153.5667,
    "country": "Australia",
    "region": "Queensland",
    "description": "Reef with beautiful coral formations. Good for beginners and intermediate divers.",
    "siteTypes": [
      "reef"
    ],
    "difficulty": 2,
    "depthMin": 5,
    "depthMax": 25,
    "marineLife": [],
    "averageRating": 0,
    "reviewCount": 0,
    "latitude": -27.3333,
    "longitude": 153.5667,
    "issues": null,
    "fixed": false,
    "valid": true
  },
  {
    "name": "Mermaid Reef",
    "lat": -16.3167,
    "lng": 145.8667,
    "country": "Australia",
    "region": "Queensland",
    "description": "Reef with beautiful coral gardens. Good visibility and diverse marine life.",
    "siteTypes": [
      "reef"
    ],
    "difficulty": 2,
    "depthMin": 5,
    "depthMax": 25,
    "marineLife": [],
    "averageRating": 0,
    "reviewCount": 0,
    "latitude": -16.3167,
    "longitude": 145.8667,
    "issues": null,
    "fixed": false,
    "valid": true
  },